{"elements": [{"type": "node", "id": 2715338048, "lat": 30.6506878, "lon": 104.0597267, "tags": {"amenity": "police", "name": "督院街派出所"}}, {"type": "node", "id": 2908410201, "lat": 30.6511947, "lon": 104.0660572, "tags": {"addr:city": "成都市", "addr:housenumber": "2号", "addr:street": "盐道街", "amenity": "school", "name": "成都市盐道街小学"}}, {"type": "node", "id": 2908615488, "lat": 30.6426152, "lon": 104.0880141, "tags": {"amenity": "kindergarten", "name": "三幼"}}, {"type": "node", "id": 4500661291, "lat": 30.6488606, "lon": 104.0846723, "tags": {"amenity": "school", "name:en": "International Education Institute i2"}}, {"type": "node", "id": 4500680091, "lat": 30.6489326, "lon": 104.085347, "tags": {"amenity": "school", "name:en": "Eton's house"}}, {"type": "node", "id": 4601641604, "lat": 30.63444, "lon": 104.1210049, "tags": {"addr:housenumber": "1666号", "addr:street": "岷江路1666号", "amenity": "hospital", "healthcare": "hospital", "name": "四川微医互联网医院", "name:en": "Sichuan Weiyi Internet Hospital", "name:zh": "四川微医互联网医院"}}, {"type": "node", "id": 4826753425, "lat": 30.6418574, "lon": 104.0998917, "tags": {"amenity": "police"}}, {"type": "node", "id": 5475934312, "lat": 30.6157464, "lon": 104.1215862, "tags": {"amenity": "school", "education": "school", "name": "四川师大继续教育学院"}}, {"type": "node", "id": 5759693511, "lat": 30.5771959, "lon": 104.1327684, "tags": {"amenity": "school", "name": "好奇学校"}}, {"type": "node", "id": 5759693867, "lat": 30.5784509, "lon": 104.1458321, "tags": {"amenity": "kindergarten", "name": "东篱学堂天一华德福幼儿园"}}, {"type": "node", "id": 11736402461, "lat": 30.6134466, "lon": 104.1183495, "tags": {"amenity": "hospital", "healthcare": "hospital", "name": "四川师范大学医院"}}, {"type": "node", "id": 12460442354, "lat": 30.6093221, "lon": 104.0927236, "tags": {"amenity": "music_school", "name": "培町美术工作室"}}, {"type": "node", "id": 12460867992, "lat": 30.6174176, "lon": 104.0926419, "tags": {"amenity": "prep_school", "name": "天府棋院少儿围棋(锦江华润路店)"}}, {"type": "node", "id": 12460867993, "lat": 30.6173337, "lon": 104.0924529, "tags": {"amenity": "dancing_school", "name": "思普舞蹈艺术(东湖校区)"}}, {"type": "node", "id": 12460868014, "lat": 30.6166385, "lon": 104.0904617, "tags": {"amenity": "clinic", "healthcare": "clinic", "name": "华侨口腔牙科"}}, {"type": "node", "id": 12460975448, "lat": 30.6223908, "lon": 104.1014125, "tags": {"amenity": "kindergarten", "education": "kindergarten", "name": "芝兰幼稚园"}}, {"type": "node", "id": 12461009657, "lat": 30.6239896, "lon": 104.0899662, "tags": {"amenity": "clinic", "healthcare": "clinic", "name": "蓉达诊所"}}, {"type": "node", "id": 12463120376, "lat": 30.6293777, "lon": 104.0949392, "tags": {"amenity": "clinic", "healthcare": "clinic", "name": "锦江桦鑫堂诊所"}}, {"type": "node", "id": 12546403274, "lat": 30.6616002, "lon": 104.0772077, "tags": {"amenity": "dancing_school", "education": "dancing_school", "name": "旖雯东方舞·声乐·练琴房工作室"}}, {"type": "node", "id": 12549378581, "lat": 30.666645, "lon": 104.0850221, "tags": {"amenity": "police", "name": "成都市公安局锦江分局书院街派出所"}}, {"type": "node", "id": 12550779557, "lat": 30.6676556, "lon": 104.0798844, "tags": {"amenity": "police", "name": "东通顺派出所玉沙电器市场治安管理室"}}, {"type": "node", "id": 12550811426, "lat": 30.6625864, "lon": 104.0837992, "tags": {"amenity": "university", "name": "重庆医科大学附属成都第三临床学院"}}, {"type": "node", "id": 12551384719, "lat": 30.6500844, "lon": 104.0871882, "tags": {"amenity": "prep_school", "name": "青禾考研"}}, {"type": "node", "id": 12551444424, "lat": 30.6460358, "lon": 104.0890532, "tags": {"amenity": "music_school", "name": "乐艺星美艺考(锦江校区)"}}, {"type": "node", "id": 12553389520, "lat": 30.6492664, "lon": 104.0953216, "tags": {"amenity": "hospital", "healthcare": "hospital", "name": "牛市口社区卫生服务中心"}}, {"type": "node", "id": 12553776639, "lat": 30.6275963, "lon": 104.1015408, "tags": {"amenity": "kindergarten", "education": "kindergarten", "name": "成都市锦江区牛沙幼儿园"}}, {"type": "node", "id": 12553893028, "lat": 30.6293865, "lon": 104.0995559, "tags": {"amenity": "prep_school", "education": "prep_school", "name": "昭然书法教育(静居寺校区)"}}, {"type": "node", "id": 12553893338, "lat": 30.6325338, "lon": 104.0948535, "tags": {"amenity": "driving_school", "education": "driving_school", "name": "长征驾校"}}, {"type": "node", "id": 12553893364, "lat": 30.6325071, "lon": 104.0958166, "tags": {"amenity": "kindergarten", "education": "kindergarten", "name": "龙舟社区幼儿园"}}, {"type": "node", "id": 12554006001, "lat": 30.6332751, "lon": 104.1091529, "tags": {"amenity": "prep_school", "name": "音基语言"}}, {"type": "node", "id": 12554006002, "lat": 30.6333573, "lon": 104.1090467, "tags": {"amenity": "prep_school", "name": "神墨美育(通宝街)"}}, {"type": "node", "id": 12554006546, "lat": 30.6351601, "lon": 104.0983095, "tags": {"amenity": "prep_school", "education": "prep_school", "name": "丹秋堂(莲桂东路校区)"}}, {"type": "node", "id": 12555847128, "lat": 30.6376351, "lon": 104.1055221, "tags": {"amenity": "music_school", "education": "music_school", "name": "朗声语言艺术中心"}}, {"type": "node", "id": 12555847129, "lat": 30.6375407, "lon": 104.1054164, "tags": {"amenity": "music_school", "education": "music_school", "name": "麦田音乐"}}, {"type": "node", "id": 12555847130, "lat": 30.6378555, "lon": 104.1049611, "tags": {"amenity": "music_school", "education": "music_school", "name": "美博教育(成都文华广场店)"}}, {"type": "node", "id": 12555847144, "lat": 30.6383992, "lon": 104.1055616, "tags": {"amenity": "dancing_school", "education": "dancing_school", "name": "Happyfeet大脚舞室(牛市口店)"}}, {"type": "node", "id": 12555847165, "lat": 30.6384721, "lon": 104.1044432, "tags": {"amenity": "clinic", "healthcare": "clinic", "name": "思迈口腔(文华店)"}}, {"type": "node", "id": 12555907111, "lat": 30.6414117, "lon": 104.099333, "tags": {"amenity": "hospital", "healthcare": "hospital", "name": "莲新社区卫生服务中心"}}, {"type": "node", "id": 12555907181, "lat": 30.6426004, "lon": 104.0985288, "tags": {"amenity": "prep_school", "name": "叁伍集·国风美学馆"}}, {"type": "node", "id": 12556052798, "lat": 30.6428077, "lon": 104.1078093, "tags": {"amenity": "prep_school", "education": "prep_school", "name": "师竹斋书画院(攀成钢创作点)"}}, {"type": "node", "id": 12556161770, "lat": 30.6406367, "lon": 104.1129876, "tags": {"amenity": "prep_school", "name": "蕾猪画室(中粮鸿云·悦街店)"}}, {"type": "node", "id": 12561381086, "lat": 30.6179153, "lon": 104.1348093, "tags": {"amenity": "kindergarten", "education": "kindergarten", "name": "成都市锦江区大观里幼儿园"}}, {"type": "node", "id": 12564823628, "lat": 30.6235521, "lon": 104.1084657, "tags": {"amenity": "prep_school", "education": "prep_school", "name": "艺术培训"}}, {"type": "node", "id": 12564905111, "lat": 30.623954, "lon": 104.1084699, "tags": {"amenity": "prep_school", "education": "prep_school", "name": "五朵金花·慧衔接成长中心(川师校区)"}}, {"type": "node", "id": 12564905112, "lat": 30.6242132, "lon": 104.1091938, "tags": {"amenity": "kindergarten", "education": "kindergarten", "name": "菲力幼儿园"}}, {"type": "node", "id": 12564905666, "lat": 30.6241435, "lon": 104.1139133, "tags": {"amenity": "music_school", "education": "music_school", "name": "谦鼓社"}}, {"type": "node", "id": 12565101695, "lat": 30.6305642, "lon": 104.1184243, "tags": {"amenity": "music_school", "education": "music_school", "name": "方厘·音乐"}}, {"type": "node", "id": 12565735001, "lat": 30.6214743, "lon": 104.1154431, "tags": {"amenity": "college", "education": "college", "name": "成都社会组织学院"}}, {"type": "node", "id": 12565735202, "lat": 30.618082, "lon": 104.1208796, "tags": {"amenity": "driving_school", "education": "driving_school", "name": "乘风驾校总校(狮子山店)"}}, {"type": "node", "id": 12565840380, "lat": 30.6203085, "lon": 104.1236294, "tags": {"amenity": "prep_school", "education": "prep_school", "name": "众学专升本(劼人路)"}}, {"type": "node", "id": 12565917729, "lat": 30.608998, "lon": 104.1161657, "tags": {"amenity": "driving_school", "education": "driving_school", "name": "天宇驾校报名处(大学店)"}}, {"type": "node", "id": 12566993887, "lat": 30.6024927, "lon": 104.1196805, "tags": {"amenity": "prep_school", "education": "prep_school", "name": "起范儿口才·语言表演"}}, {"type": "node", "id": 12566993933, "lat": 30.6025856, "lon": 104.1187426, "tags": {"amenity": "prep_school", "education": "prep_school", "name": "人人练字(东华小学旗舰店)"}}, {"type": "node", "id": 12567048842, "lat": 30.606861, "lon": 104.1243642, "tags": {"amenity": "driving_school", "education": "driving_school", "name": "长征驾校蓝谷地报名处"}}, {"type": "node", "id": 12567049234, "lat": 30.6113052, "lon": 104.1315675, "tags": {"amenity": "music_school", "education": "music_school", "name": "青兔音乐"}}, {"type": "node", "id": 12567049235, "lat": 30.6110084, "lon": 104.1314939, "tags": {"amenity": "prep_school", "education": "prep_school", "name": "阿诺琪英语培训学校"}}, {"type": "node", "id": 12567205522, "lat": 30.612185, "lon": 104.1284529, "tags": {"amenity": "driving_school", "education": "driving_school", "name": "金箭驾校"}}, {"type": "node", "id": 12567205993, "lat": 30.603136, "lon": 104.1371865, "tags": {"amenity": "prep_school", "education": "prep_school", "name": "烛光者文娱兴趣学堂(锦江枫树校区)"}}, {"type": "node", "id": 12567206099, "lat": 30.5968447, "lon": 104.1368636, "tags": {"amenity": "music_school", "name": "四维音乐空间·钢琴·作曲·音乐素养"}}, {"type": "node", "id": 12567206100, "lat": 30.5998059, "lon": 104.1409308, "tags": {"amenity": "music_school", "name": "小熊钢琴工作室"}}, {"type": "node", "id": 12567672886, "lat": 30.5998324, "lon": 104.1425733, "tags": {"amenity": "driving_school", "name": "大成驾校(锦江分校)"}}, {"type": "node", "id": 12567672920, "lat": 30.6022752, "lon": 104.1460743, "tags": {"amenity": "prep_school", "education": "prep_school", "name": "大地之星艺术培训学校(锦爱伙伴)"}}, {"type": "node", "id": 12568030632, "lat": 30.6050649, "lon": 104.1535305, "tags": {"amenity": "music_school", "education": "music_school", "name": "文社长音乐空间"}}, {"type": "node", "id": 12568030713, "lat": 30.6009466, "lon": 104.1490822, "tags": {"amenity": "prep_school", "education": "prep_school", "name": "锦城峰荟社区艺术空间"}}, {"type": "node", "id": 12568190886, "lat": 30.592638, "lon": 104.152978, "tags": {"amenity": "prep_school", "name": "金色太阳艺术工作室"}}, {"type": "node", "id": 12568190887, "lat": 30.5921338, "lon": 104.1527108, "tags": {"amenity": "music_school", "name": "可以音乐·钢琴声乐吉他器乐培训"}}, {"type": "node", "id": 12568191027, "lat": 30.5927597, "lon": 104.1461834, "tags": {"amenity": "prep_school", "name": "成都棋校(锦江分训部)"}}, {"type": "node", "id": 12568191047, "lat": 30.5935596, "lon": 104.1464882, "tags": {"amenity": "prep_school", "name": "烛光者夜校(华熙528一号校区)"}}, {"type": "node", "id": 12568191204, "lat": 30.5952329, "lon": 104.1427164, "tags": {"amenity": "dancing_school", "name": "恺酷街舞(华熙LIVE·528校区)"}}, {"type": "node", "id": 12568191290, "lat": 30.5896846, "lon": 104.1393829, "tags": {"amenity": "kindergarten", "name": "华西妇幼托育中心"}}, {"type": "node", "id": 12568333572, "lat": 30.5856514, "lon": 104.1501246, "tags": {"amenity": "kindergarten", "name": "成都锦江启迪幼儿园"}}, {"type": "node", "id": 12638748863, "lat": 30.5914718, "lon": 104.1004269, "tags": {"amenity": "dancing_school", "name": "蓝屿舞蹈"}}, {"type": "node", "id": 12638805599, "lat": 30.5951162, "lon": 104.1126636, "tags": {"amenity": "kindergarten", "name": "睿晨幼儿园"}}, {"type": "node", "id": 12640985268, "lat": 30.5897631, "lon": 104.1268409, "tags": {"amenity": "kindergarten", "name": "星星幼儿园"}}, {"type": "node", "id": 12682857301, "lat": 30.6614295, "lon": 104.0790559, "tags": {"addr:housenumber": "16", "addr:street": "华兴东街", "amenity": "language_school", "education": "language_school", "name": "LTL Mandarin"}}, {"type": "node", "id": 12819286630, "lat": 30.6238587, "lon": 104.0968365, "tags": {"amenity": "kindergarten", "education": "kindergarten", "name": "博蓓幼稚中心"}}, {"type": "way", "id": 201271107, "center": {"lat": 30.6194234, "lon": 104.1001711}, "nodes": [9006637834, 2112261972, 2112261970, 2112261973, 9006637835, 9006637834], "tags": {"amenity": "school", "education": "school", "name": "成都市东光实验小学"}}, {"type": "way", "id": 201897220, "center": {"lat": 30.6113614, "lon": 104.1012006}, "nodes": [2119087831, 2119087837, 2119087829, 12734107882, 2119087847, 2119087848, 2119087851, 8645595387, 2119087831], "tags": {"amenity": "school", "education": "school", "name": "成都嘉祥外国语学校"}}, {"type": "way", "id": 207667616, "center": {"lat": 30.6176489, "lon": 104.0954282}, "nodes": [2179214139, 2179214142, 2179214135, 2179214140, 2179214138, 2179214141, 2179214139], "tags": {"amenity": "school", "name": "川师附小"}}, {"type": "way", "id": 210510768, "center": {"lat": 30.5625712, "lon": 104.1102419}, "nodes": [2205961165, 2205961169, 9307668371, 9307668372, 9307668373, 2205961159, 9307668374, 2205961154, 2205961165], "tags": {"amenity": "school", "description": "成都师范附属小学白鹭溪分校", "name": "成都师范附属小学白鹭溪分校", "name:zh": "成都师范附属小学白鹭溪分校"}}, {"type": "way", "id": 232847137, "center": {"lat": 30.6100098, "lon": 104.1098889}, "nodes": [2411594745, 2411594746, 2411594747, 2411594748, 2411594749, 2411594750, 2411594751, 2411594752, 12723653065, 2411594753, 2411594754, 2411594755, 2411594745], "tags": {"amenity": "school", "education": "school", "name": "师一学校锦江校区"}}, {"type": "way", "id": 263960282, "center": {"lat": 30.612683, "lon": 104.1202086}, "nodes": [2696414003, 11736402448, 11736402447, 4934383716, 3450087730, 2696414004, 11736402460, 11736402450, 11736402451, 3450087713, 2119028379, 11736402459, 11736402458, 8642297173, 2119028356, 2696414005, 2696414006, 2696414007, 10709928613, 2696414008, 2696414009, 11736377362, 11736377363, 2696414010, 11736377364, 2696414011, 11736377365, 11736377361, 11736377360, 11736377359, 2696414012, 11736377350, 11736377351, 11736377352, 11736377353, 11736377354, 11736377355, 11736377356, 11736377357, 11736377358, 11736377347, 11736377349, 8642297167, 11736377366, 8642297171, 11736402390, 8642297174, 11736402375, 11736402369, 11736402376, 11736402370, 11736402377, 11736402371, 11736402373, 11736402374, 11736402372, 11736377368, 11736377367, 8642297170, 8642297172, 8642297169, 11736402418, 5475934106, 5475934105, 11736402416, 11736402417, 11736402408, 5475934280, 5475934279, 5475934074, 2696414015, 11736402434, 11736402409, 11736402410, 11736402449, 2696414003], "tags": {"addr:city": "成都市", "addr:district": "锦江区", "addr:housenumber": "5", "addr:postcode": "610066", "addr:province": "四川省", "addr:street": "静安路", "amenity": "university", "education": "university", "name": "四川师范大学（狮子山校区）", "name:en": "Sichuan Normal University (Shizishan Campus)", "name:zh": "四川师范大学（狮子山校区）", "website": "www.sicnu.edu.cn"}}, {"type": "way", "id": 288171594, "center": {"lat": 30.6469017, "lon": 104.0855064}, "nodes": [2917201377, 2917201378, 4292862543, 2917201380, 2917201381, 2917201382, 2917201383, 2917201384, 2917201377], "tags": {"addr:city": "Chengdu", "addr:district": "锦江区", "addr:housenumber": "45号", "addr:postcode": "610014", "addr:province": "四川省", "addr:street": "双槐树街", "amenity": "school", "name": "成都七中育才学校", "name:en": "No. 7 Yucai Middle School"}}, {"type": "way", "id": 288172902, "center": {"lat": 30.648293, "lon": 104.0887915}, "nodes": [2917213932, 2917213933, 2917213934, 2917213935, 2917213936, 2917213938, 2917213939, 2917213937, 2917213932], "tags": {"amenity": "school", "name": "成都锦官驿小学"}}, {"type": "way", "id": 408086242, "center": {"lat": 30.6006463, "lon": 104.143264}, "nodes": [4101035812, 4101035813, 4101035814, 4101035815, 4101035812], "tags": {"amenity": "kindergarten", "building": "yes", "education": "kindergarten", "name": "成都市童蒙幼儿园"}}, {"type": "way", "id": 408086243, "center": {"lat": 30.6078532, "lon": 104.1386801}, "nodes": [4101035816, 6140066087, 6140066127, 4101035817, 6140066088, 4101035818, 6140066089, 4101035819, 4101035820, 4101035821, 6140066090, 4101035823, 6140066086, 4101035816], "tags": {"amenity": "school", "education": "school", "name": "树德中学外国语学校"}}, {"type": "way", "id": 459228804, "center": {"lat": 30.6022204, "lon": 104.1323456}, "nodes": [4551330435, 4551330433, 4551330431, 4551330432, 4551330434, 4551330435], "tags": {"amenity": "school", "education": "school", "name": "盐道街小学卓锦分校"}}, {"type": "way", "id": 495702657, "center": {"lat": 30.6263715, "lon": 104.1032606}, "nodes": [4882102325, 4874328014, 4874328015, 4874328018, 4874328019, 4874328020, 4874328121, 4874328125, 4874328124, 4874328123, 4874328122, 4874328017, 4882102325], "tags": {"alt_name": "成都市第二惠民医院", "alt_name:en": "Chengdu Second Public Benefit Hospital", "alt_name:zh": "成都市第二惠民医院", "amenity": "hospital", "healthcare": "hospital", "name": "成都市第十人民医院（净居寺院区）", "name:en": "Chengdu Tenth People's Hospital", "name:zh": "成都市第十人民医院（净居寺院区）", "operator": "成都市第十人民医院", "operator:type": "public"}}, {"type": "way", "id": 496007057, "center": {"lat": 30.6268517, "lon": 104.0990595}, "nodes": [4877246215, 4877246216, 4877246219, 4877246217, 4877246218, 12460975557, 12460975556, 4877246215], "tags": {"amenity": "school", "education": "school", "name": "龙舟路小学"}}, {"type": "way", "id": 569386988, "center": {"lat": 30.6166623, "lon": 104.1185511}, "nodes": [5475934104, 5475934119, 5475934279, 5475934280, 11736402408, 11736402417, 11736402416, 5475934105, 11736402418, 8642297169, 11736402406, 12565735129, 12565735130, 12565735131, 12565735132, 12565735133, 12565735134, 5475934107, 11736402412, 5475934109, 11736402415, 5475934110, 5475934111, 5475934112, 5475934113, 5475934114, 11736402431, 11736402432, 11736402433, 5475934115, 5475934116, 5475934117, 11736402420, 11736402419, 5475934104], "tags": {"amenity": "school", "education": "school", "name": "四川师大附属中学"}}, {"type": "way", "id": 573639397, "center": {"lat": 30.6177412, "lon": 104.1386612}, "nodes": [5508669284, 10908390020, 10908390021, 5508669285, 10908390018, 10908390019, 10908390017, 10908390016, 10908390023, 10908390024, 10908390022, 5508669286, 10908390042, 10908390041, 10908390040, 10908390039, 10908390038, 10908390032, 10908390037, 10908390036, 10908390035, 10908390034, 10908390033, 10908390031, 10908390030, 10908390029, 10908390028, 10908390026, 10908390027, 10908390025, 10908390119, 5508669287, 5508669288, 5508669289, 5508669284], "tags": {"alt_name": "成都市第十人民医院", "amenity": "hospital", "emergency": "yes", "healthcare": "hospital", "healthcare:speciality": "infectious_diseases", "name": "成都市公共卫生临床医疗中心（航天院区）", "name:zh": "成都市公共卫生临床医疗中心（航天院区）", "operator": "成都市公共卫生临床医疗中心", "operator:type": "public"}}, {"type": "way", "id": 582845154, "center": {"lat": 30.6496488, "lon": 104.0685556}, "nodes": [5573132337, 5573132338, 5573132339, 5573132340, 5573132341, 5573132337], "tags": {"amenity": "school", "name": "盐道街中学（高中部）", "name:en": "Yandao Street Middle School"}}, {"type": "way", "id": 587802049, "center": {"lat": 30.6518381, "lon": 104.0662389}, "nodes": [5614570030, 5614570031, 5614570032, 5614570033, 5614570034, 5614570035, 5614570030], "tags": {"addr:city": "成都市", "addr:district": "锦江区", "addr:housenumber": "2号", "addr:postcode": "610014", "addr:province": "四川", "addr:street": "盐道街", "amenity": "school", "name": "成都盐道街小学", "name:en": "Chengdu Yandaojie Primary School", "name:zh": "成都盐道街小学"}}, {"type": "way", "id": 587802051, "center": {"lat": 30.6522992, "lon": 104.0660601}, "nodes": [5614570044, 5614570045, 5614570046, 11484307148, 11484307149, 5614570030, 5614570035, 5614570034, 5614570033, 2677597831, 2677597840, 2677597839, 2677597813, 5614570047, 5614570044], "tags": {"amenity": "school", "name": "盐道街中学（初中部）", "name:en": "Yandao Street Middle School", "name:zh-Latn-pinyin": "Yándàojiē zhōngxué"}}, {"type": "way", "id": 607558685, "center": {"lat": 30.5928213, "lon": 104.1049769}, "nodes": [5757680983, 5757680984, 5757680985, 5757680986, 5757680983], "tags": {"amenity": "school", "education": "school", "name": "锦江区教师进修学校"}}, {"type": "way", "id": 607874753, "center": {"lat": 30.6062819, "lon": 104.1260228}, "nodes": [5759987591, 5759987592, 11494315499, 5759987593, 11494315497, 5759987595, 11494315496, 5759987594, 5759987591], "tags": {"alt_name": "成都市艺术中学", "amenity": "school", "education": "school", "name": "成都三中", "official_name": "成都市第三中学"}}, {"type": "way", "id": 614874103, "center": {"lat": 30.6673612, "lon": 104.0852105}, "nodes": [5815413595, 5815413596, 5815413597, 5815413598, 5815413599, 5815413600, 5815413601, 5815413602, 5815413595], "tags": {"amenity": "school", "grades": "7-12", "name": "成都市第二中学", "name:zh": "成都市第二中学", "old_name": "北京师范大学成都实验中学", "operator": "成都市教育局", "operator:type": "government", "website": "http://www.bsdcdsy.com/"}}, {"type": "way", "id": 654986165, "center": {"lat": 30.6085317, "lon": 104.1404469}, "nodes": [6137107452, 6137107453, 6137107454, 6137107455, 6139900490, 6137107456, 6137107457, 6137107458, 6137107452], "tags": {"amenity": "school", "education": "school", "name": "锦江外国语小学", "name:en": "Jinjiang Foreign Language Primary School"}}, {"type": "way", "id": 655132004, "center": {"lat": 30.6044148, "lon": 104.1361199}, "nodes": [6138436753, 6138436754, 6138436760, 6138436755, 6138436756, 6138436757, 6138436782, 6138436758, 6138436596, 6138436753], "tags": {"amenity": "school", "education": "school", "name": "粮丰中学", "name:en": "Liangfeng Middle School"}}, {"type": "way", "id": 655140137, "center": {"lat": 30.6025134, "lon": 104.1357489}, "nodes": [5515815861, 6138522128, 6138522129, 6138522130, 6138522131, 5515815861], "tags": {"amenity": "kindergarten", "education": "kindergarten", "name": "成都市第一幼儿园(卓锦园区)", "name:en": "Chengdu First Kindergarten (Zhuojin Park)"}}, {"type": "way", "id": 655298934, "center": {"lat": 30.6096024, "lon": 104.1406142}, "nodes": [6139900047, 6139900048, 6139900049, 6139900050, 6139900047], "tags": {"amenity": "kindergarten", "education": "kindergarten", "name": "成都市芙蓉幼儿园", "name:en": "Chengdu Furong Kindergarten"}}, {"type": "way", "id": 655298938, "center": {"lat": 30.6088865, "lon": 104.1415547}, "nodes": [6139900490, 6139900491, 6139900513, 6139900517, 6139900516, 6139900492, 6139900493, 6139900490], "tags": {"amenity": "kindergarten", "education": "kindergarten", "name": "树星蒙特梭利幼稚园", "name:en": "Tree Star Montessori Kindergarten"}}, {"type": "way", "id": 675185823, "center": {"lat": 30.6032242, "lon": 104.0992604}, "nodes": [6323160033, 6323160034, 6323160035, 6323160036, 6323160037, 6323160038, 6323160033], "tags": {"amenity": "school", "name": "盐道街小学"}}, {"type": "way", "id": 675766267, "center": {"lat": 30.6046979, "lon": 104.1084681}, "nodes": [6328459391, 6328459392, 11494315572, 6328459393, 6328459395, 11494315571, 6328459397, 6328459398, 6328459399, 6328459400, 12460904976, 6328459401, 12460904980, 12460904979, 12460904978, 6328459402, 6328459403, 6328459404, 12460904977, 6328459405, 6328459406, 6328459407, 6328459391], "tags": {"amenity": "school", "education": "school", "name": "成都华德福学校"}}, {"type": "way", "id": 827798343, "center": {"lat": 30.6357828, "lon": 104.0934081}, "nodes": [7727965431, 7727965432, 7727965433, 12811065658, 7727965434, 12811065657, 12811065655, 12811065656, 12811065654, 7727965435, 12463120418, 12811065665, 12811065664, 12463120419, 12811065661, 12811065663, 12811065662, 7727965436, 7727965437, 12811065659, 7727965438, 7727965439, 7727965431], "tags": {"alt_name": "解放军第四五二医院", "amenity": "hospital", "emergency": "yes", "healthcare": "hospital", "name": "西部战区空军医院", "name:zh": "西部战区空军医院", "operator": "西部战区空军后勤部", "operator:type": "military", "wikidata": "Q30951083", "wikipedia": "zh:中国人民解放军西部战区空军医院"}}, {"type": "way", "id": 837186679, "center": {"lat": 30.6613563, "lon": 104.0810217}, "nodes": [7813478096, 7813478097, 7813478098, 7813478099, 7813478100, 7813478096], "tags": {"amenity": "school", "education": "school", "name": "第十七中学初中部"}}, {"type": "way", "id": 885994857, "center": {"lat": 30.6546342, "lon": 104.06981}, "nodes": [8238486008, 8238486014, 11506210110, 8238486013, 8238486012, 12545983576, 12545983575, 12545983574, 11506210039, 11506210040, 8238486011, 12545983573, 8238486010, 8238486009, 8238486008], "tags": {"amenity": "school", "name": "成都师范附属小学", "name:en": "Chengshi Primary School", "name:zh": "成师附小"}}, {"type": "way", "id": 886017483, "center": {"lat": 30.6602618, "lon": 104.0834359}, "nodes": [8238627453, 8238627452, 8238627451, 8238627450, 8238627449, 8238627448, 8238627447, 8238627446, 8238627445, 8238627444, 8238627453], "tags": {"amenity": "school", "name": "成都职业技术学院(锦江校区)", "name:en": "Chengdu Vocational and Technical College (Jinjiang Campus)", "name:zh": "成都职业技术学院(锦江校区)"}}, {"type": "way", "id": 926110156, "center": {"lat": 30.633882, "lon": 104.1056816}, "nodes": [2917006505, 8594376132, 8594376133, 8594376134, 8594376135, 8594376136, 8594376137, 8594376138, 2917006505], "tags": {"amenity": "school", "education": "school", "name": "成都七中育才学校（新校区）"}}, {"type": "way", "id": 926110165, "center": {"lat": 30.6396727, "lon": 104.1165285}, "nodes": [8594376205, 8594376203, 8508755770, 8594376193, 8508755769, 8594376202, 8594376201, 8594376194, 8594376198, 8594376196, 8594376205], "tags": {"amenity": "school", "name": "盐道街小学（通桂校区）"}}, {"type": "way", "id": 926110166, "center": {"lat": 30.6388865, "lon": 104.1164954}, "nodes": [8594376195, 8594376196, 8594376205, 8594376204, 8594376197, 8594376195], "tags": {"amenity": "kindergarten", "name": "成都市第三幼儿园（国际新城园区）"}}, {"type": "way", "id": 926110167, "center": {"lat": 30.639301, "lon": 104.1157136}, "nodes": [8594376198, 8594376199, 8594376200, 8594376195, 8594376196, 8594376198], "tags": {"amenity": "clinic", "healthcare": "clinic", "name": "东大国际社区卫生服务中心"}}, {"type": "way", "id": 931936530, "center": {"lat": 30.6628945, "lon": 104.0848238}, "nodes": [8639584540, 8639584541, 8639584542, 8639584543, 8639584544, 8639584545, 10860346736, 10860346731, 10860346734, 10860346735, 8639584546, 12265641180, 12265641181, 12265641182, 12265641183, 12265641184, 12265641185, 8639584547, 8639584548, 8639584549, 8639584540], "tags": {"addr:housenumber": "10", "addr:street": "庆云南街", "amenity": "hospital", "emergency": "yes", "healthcare": "hospital", "name": "成都市第二人民医院", "name:en": "2nd Chengdu People's Hospital", "name:zh": "成都市第二人民医院"}}, {"type": "way", "id": 947245597, "center": {"lat": 30.5878133, "lon": 104.1449999}, "nodes": [8768418598, 8768418599, 8768418600, 8768418601, 8768418602, 8768418603, 8768418604, 8768418598], "tags": {"amenity": "hospital", "healthcare": "hospital", "name": "华西第二医院（锦江院区）"}}, {"type": "way", "id": 947245598, "center": {"lat": 30.58796, "lon": 104.1429994}, "nodes": [8768418604, 12568191422, 8768418605, 8768418608, 8768418606, 8768418602, 8768418603, 8768418604], "tags": {"amenity": "school", "name": "三圣小学"}}, {"type": "way", "id": 947245600, "center": {"lat": 30.5910406, "lon": 104.1452862}, "nodes": [8768418609, 8768418610, 8768418611, 8768418612, 8768418613, 8768418614, 9508157943, 8768418609], "tags": {"amenity": "school", "name": "成都七中育才学校银杏校区"}}, {"type": "way", "id": 947245605, "center": {"lat": 30.5925434, "lon": 104.1480514}, "nodes": [8768447435, 8768447436, 8768447437, 8768447438, 8768447435], "tags": {"amenity": "school", "name": "成都市七中育才附属小学银杏校区"}}, {"type": "way", "id": 947245611, "center": {"lat": 30.5928497, "lon": 104.1502268}, "nodes": [8768447472, 8768447481, 8768447482, 8768447470, 8768447471, 8768447472], "tags": {"amenity": "kindergarten", "name": "成都市童蒙幼儿园（杨树园区）"}}, {"type": "way", "id": 948592624, "center": {"lat": 30.6206783, "lon": 104.0933331}, "nodes": [8780362871, 8780362882, 8780362883, 8780362872, 8780362871], "tags": {"amenity": "school", "name": "成都市盐道街小学(东湖分校)"}}, {"type": "way", "id": 958845825, "center": {"lat": 30.6344049, "lon": 104.1211724}, "nodes": [8872322341, 8872322342, 8872322343, 8872322344, 8872322345, 8872322346, 8872322347, 8872322341], "tags": {"amenity": "hospital", "healthcare": "hospital", "name": "四川省第四人民医院（沙河院区）"}}, {"type": "way", "id": 981250679, "center": {"lat": 30.6352221, "lon": 104.1053929}, "nodes": [9076860781, 9076860782, 9076860783, 9076860784, 9076860785, 9076860781], "tags": {"amenity": "kindergarten", "education": "kindergarten", "name": "成都市第三幼儿园（汇泉园区）", "name:zh": "成都市第三幼儿园（汇泉园区）", "operator": "成都市第三幼儿园", "operator:type": "public"}}, {"type": "way", "id": 1001360111, "center": {"lat": 30.6220892, "lon": 104.1217549}, "nodes": [9242772977, 9242772978, 9242772979, 9242772980, 9242772981, 9242772982, 9242772983, 9242772984, 9392485174, 9294082179, 9294082180, 12565840260, 9242772985, 9242772986, 9242772987, 12565102171, 12828376671, 9242772988, 9242772989, 12565102170, 9242772977], "tags": {"amenity": "university", "education": "university", "name": "四川邮电职业技术学院"}}, {"type": "way", "id": 1002941513, "center": {"lat": 30.6132973, "lon": 104.1310658}, "nodes": [9255722090, 9255722091, 9255722092, 9255722093, 9255722090], "tags": {"amenity": "school", "education": "school", "name": "成都市锦江实验学校"}}, {"type": "way", "id": 1007393018, "center": {"lat": 30.620523, "lon": 104.1188304}, "nodes": [9293744079, 9293744080, 9293744081, 9293744082, 9293744083, 9293744084, 9293744085, 9293744086, 9293744079], "tags": {"amenity": "school", "education": "school", "name": "菱窠路小学"}}, {"type": "way", "id": 1007410944, "center": {"lat": 30.6241347, "lon": 104.1173193}, "nodes": [9293949980, 12828263897, 9293949981, 12828263865, 12828263864, 9293949982, 9293949983, 9293949984, 12828263863, 12828263862, 9293949985, 9293949980], "tags": {"amenity": "hospital", "healthcare": "hospital", "name": "四川锦欣西囡妇女儿童医院(静秀院区)"}}, {"type": "way", "id": 1007715256, "center": {"lat": 30.6225264, "lon": 104.1184052}, "nodes": [9296822162, 9296822163, 9296822164, 9296822165, 9296822166, 9296822167, 9296822168, 9296822169, 9296822162], "tags": {"amenity": "police", "building": "yes", "name": "狮子山派出所", "operator": "中华人民共和国公安部", "operator:en": "Ministry of Public Security", "operator:wikidata": "Q2346285", "operator:wikipedia": "zh:中华人民共和国公安部", "operator:zh": "中华人民共和国公安部"}}, {"type": "way", "id": 1009329595, "center": {"lat": 30.620173, "lon": 104.1240424}, "nodes": [9312671986, 9385794186, 9312671987, 12828376675, 12828376674, 9300687051, 9300687052, 9300687047, 9385794182, 9312671986], "tags": {"amenity": "hospital", "healthcare": "hospital", "name": "锦欣沙河堡医院"}}, {"type": "way", "id": 1052259982, "center": {"lat": 30.5964844, "lon": 104.1062736}, "nodes": [9670230306, 9670230307, 9670230308, 9670230309, 9670230306], "tags": {"amenity": "hospital", "healthcare": "hospital", "name": "成都锦江泰三堂德康医院"}}, {"type": "way", "id": 1052259985, "center": {"lat": 30.5954612, "lon": 104.1043753}, "nodes": [9670325922, 9670325923, 9670325924, 9670325925, 9670325922], "tags": {"amenity": "kindergarten", "education": "kindergarten", "name": "新华实验幼儿园("}}, {"type": "way", "id": 1052259987, "center": {"lat": 30.5924473, "lon": 104.095899}, "nodes": [9670325934, 9670325941, 9670325935, 10289517335, 9670325936, 10289517336, 9670325937, 9670325934], "tags": {"amenity": "school", "name": "锦江区教育科学研究院附属中学"}}, {"type": "way", "id": 1052259988, "center": {"lat": 30.5925691, "lon": 104.0947164}, "nodes": [9670325938, 9670325939, 9670325940, 9670325941, 9670325934, 9670325938], "tags": {"amenity": "school", "name": "盐道街小学锦馨分校"}}, {"type": "way", "id": 1052259989, "center": {"lat": 30.593006, "lon": 104.0936389}, "nodes": [9670325943, 9670325944, 9670325945, 9670325946, 9670325947, 9670325948, 9670325949, 9670325943], "tags": {"amenity": "kindergarten", "name": "成都市第二幼儿园锦馨园区"}}, {"type": "way", "id": 1052259992, "center": {"lat": 30.5932258, "lon": 104.1093552}, "nodes": [9670325977, 9670325978, 9670325979, 9670325980, 9670325981, 9670325977], "tags": {"amenity": "school", "name": "天涯石小学逸景分校"}}, {"type": "way", "id": 1052259997, "center": {"lat": 30.5906009, "lon": 104.1107294}, "nodes": [9670326006, 9670326007, 9670326008, 9670326009, 9670326006], "tags": {"amenity": "kindergarten", "name": "逸景幼儿园"}}, {"type": "way", "id": 1052260000, "center": {"lat": 30.5940387, "lon": 104.1095989}, "nodes": [9670326018, 9670326019, 9670326020, 9670326021, 9670326022, 9670326018], "tags": {"amenity": "kindergarten", "name": "成都市第一幼儿园逸景园区"}}, {"type": "way", "id": 1052264857, "center": {"lat": 30.5971146, "lon": 104.1440847}, "nodes": [9670354816, 9670381917, 9670381918, 9670381919, 9670381920, 9670381921, 9670381922, 9670381923, 9670354816], "tags": {"amenity": "school", "name": "成都市盐道街小学528校区"}}, {"type": "way", "id": 1073922299, "center": {"lat": 30.6435564, "lon": 104.09352}, "nodes": [2908615487, 9850905456, 9850905457, 9850905458, 9850905459, 2908615487], "tags": {"amenity": "school", "name": "骄子小学", "wheelchair": "yes"}}, {"type": "way", "id": 1102757100, "center": {"lat": 30.6181884, "lon": 104.1115788}, "nodes": [10091229031, 10091229032, 10091229033, 10091229034, 10091229035, 10091229036, 10091229037, 10091217241, 10127563074, 9867882925, 10091229038, 10091229031], "tags": {"amenity": "school", "education": "school"}}, {"type": "way", "id": 1102757101, "center": {"lat": 30.6178229, "lon": 104.1121198}, "nodes": [10091229039, 10091229040, 10091229041, 10091229042, 10091229043, 10091229039], "tags": {"amenity": "kindergarten", "education": "kindergarten", "name": "树基幼儿园"}}, {"type": "way", "id": 1122916079, "center": {"lat": 30.5937215, "lon": 104.1655747}, "nodes": [9320591578, 10269792087, 10269792088, 10269792089, 10269792090, 9320591577, 9320591578], "tags": {"amenity": "school", "full_name": "锦江区芙蓉小学", "name": "芙蓉小学"}}, {"type": "way", "id": 1236755874, "center": {"lat": 30.6502715, "lon": 104.0784247}, "nodes": [11484307133, 11484307134, 11484307135, 11484307136, 11484307137, 11484307138, 11484307139, 11484307133], "tags": {"amenity": "college", "name": "四川省成都市礼仪职业中学"}}, {"type": "way", "id": 1236755875, "center": {"lat": 30.649224, "lon": 104.0781128}, "nodes": [11484307140, 11507998266, 11507998267, 11484307141, 11484307142, 11484307143, 11484307140], "tags": {"amenity": "school", "name": "成都七中育才学道街分校"}}, {"type": "way", "id": 1236765495, "center": {"lat": 30.6505474, "lon": 104.0889595}, "nodes": [11484495951, 11484495952, 11484495953, 11484495954, 11484495955, 11484495956, 11484495951], "tags": {"amenity": "school", "name": "成都市第十七中学"}}, {"type": "way", "id": 1237513898, "center": {"lat": 30.6024069, "lon": 104.1171748}, "nodes": [9670326029, 11494315473, 11494315474, 11494315475, 11494315476, 11494315477, 11494315478, 11494315479, 9670326032, 9670326028, 9670326029], "tags": {"amenity": "school", "education": "school", "name": "七中育才学校华兴分校"}}, {"type": "way", "id": 1237513899, "center": {"lat": 30.6035566, "lon": 104.1166492}, "nodes": [9670326032, 9670326040, 11494315480, 11494315481, 11494315479, 9670326032], "tags": {"amenity": "school", "education": "school", "name": "锦江区东华小学"}}, {"type": "way", "id": 1237513900, "center": {"lat": 30.6047558, "lon": 104.1187005}, "nodes": [11494315472, 11494315484, 11494315485, 9670326045, 11494315472], "tags": {"amenity": "kindergarten", "education": "kindergarten", "name": "锦江区华兴幼儿园"}}, {"type": "way", "id": 1237513912, "center": {"lat": 30.6028417, "lon": 104.1089749}, "nodes": [5759988542, 11494315550, 11494315551, 11494315552, 11494315553, 11494315554, 11494315555, 11494315556, 11494315557, 11494315558, 11494315559, 11494315560, 11494315561, 11494315562, 11494315563, 11494315564, 11494315571, 6328459395, 6328459393, 11494315572, 6328459392, 6328459391, 11494315565, 11494315566, 11494315567, 11494315568, 11494315569, 11494315570, 5759988542], "tags": {"amenity": "college", "education": "college", "name": "成都华大医药卫生学校"}}, {"type": "way", "id": 1237513913, "center": {"lat": 30.6008719, "lon": 104.1026164}, "nodes": [11494315573, 11494315574, 11494315575, 11494315576, 11494315577, 10298181337, 10298181336, 11494315578, 11494315579, 10298181335, 11494315573], "tags": {"amenity": "school", "education": "school", "name": "四川师大附中锦华分校"}}, {"type": "way", "id": 1238629022, "center": {"lat": 30.6337281, "lon": 104.0932894}, "nodes": [11506153307, 11506153308, 11506153309, 11506153310, 11506153311, 11506153312, 11506153313, 11506153314, 11506153315, 11506153316, 11506153317, 11506153318, 11506153319, 11506153320, 11506153321, 11506153307], "tags": {"amenity": "school", "education": "school", "name": "成都市田家炳中学"}}, {"type": "way", "id": 1238792166, "center": {"lat": 30.6517331, "lon": 104.0756018}, "nodes": [11508012338, 11508012339, 11508012340, 11508012341, 11508012342, 11508012343, 11508012344, 11508012338], "tags": {"amenity": "school", "name": "龙王庙正街小学"}}, {"type": "way", "id": 1261571538, "center": {"lat": 30.5938224, "lon": 104.1323442}, "nodes": [11723082049, 11723082050, 11723082051, 11723082052, 11723082053, 11723082054, 11723082055, 11723082056, 11723082057, 11723082058, 11723082059, 11302561219, 11302561222, 11723082049], "tags": {"amenity": "hospital", "healthcare": "hospital", "name": "四川大学华西医院锦江院区"}}, {"type": "way", "id": 1263170252, "center": {"lat": 30.6145264, "lon": 104.1179968}, "nodes": [11736402390, 11736402391, 11736402392, 11736402393, 11736402394, 11736402395, 11736402396, 11736402397, 11736402398, 11736402399, 11736402400, 11736402401, 11736402402, 11736402403, 11736402404, 11736402405, 11736402407, 8642297169, 8642297172, 8642297170, 11736377367, 11736377368, 11736402372, 11736402374, 11736402373, 11736402371, 11736402377, 11736402370, 11736402376, 11736402369, 11736402375, 8642297174, 11736402390], "tags": {"amenity": "school", "education": "school", "name": "四川师范大学附属实验学校"}}, {"type": "way", "id": 1346639540, "center": {"lat": 30.6049551, "lon": 104.0865845}, "nodes": [12456009164, 12456009165, 12456009166, 12456009167, 12456009164], "tags": {"amenity": "kindergarten"}}, {"type": "way", "id": 1346648807, "center": {"lat": 30.5985529, "lon": 104.0938089}, "nodes": [12456119996, 12456119997, 12456119998, 12456119999, 12456120000, 12456120001, 12456120002, 12456120003, 12456120004, 12456120005, 12456119996], "tags": {"amenity": "school", "name": "成都市锦江区特殊教育学校(琉璃校区)"}}, {"type": "way", "id": 1346648870, "center": {"lat": 30.6058813, "lon": 104.1036019}, "nodes": [12456120320, 12456120321, 12456120322, 12456120323, 12456120324, 12456120325, 12456120320], "tags": {"amenity": "clinic", "building": "yes", "healthcare": "clinic", "name": "成都市锦江区成龙路社区卫生服务中心"}}, {"type": "way", "id": 1346648871, "center": {"lat": 30.6059155, "lon": 104.1032597}, "nodes": [12456120326, 12456120327, 12456120328, 12456120329, 12456120330, 12456120331, 12456120326], "tags": {"amenity": "clinic", "building": "yes", "healthcare": "clinic", "name": "成都锦江益民医院"}}, {"type": "way", "id": 1346656171, "center": {"lat": 30.6040092, "lon": 104.0985314}, "nodes": [12456175579, 12456175580, 12456175581, 12456175582, 12456175579], "tags": {"amenity": "kindergarten", "name": "东方阳光幼稚园"}}, {"type": "way", "id": 1347033950, "center": {"lat": 30.6149983, "lon": 104.1042311}, "nodes": [12460428863, 12460428864, 12460428865, 12460428866, 12460428867, 12460428863], "tags": {"amenity": "kindergarten", "education": "kindergarten", "name": "英贝雅智幼儿园"}}, {"type": "way", "id": 1347033964, "center": {"lat": 30.6096677, "lon": 104.1026916}, "nodes": [12460442080, 12460442081, 12460442082, 12460442083, 12460442084, 12460442080], "tags": {"amenity": "kindergarten", "education": "kindergarten", "name": "金苹果爱弥儿幼儿园(爱东园)"}}, {"type": "way", "id": 1347038318, "center": {"lat": 30.6074927, "lon": 104.1027862}, "nodes": [12460490557, 12460490558, 12460490559, 12460490560, 12460490561, 12460490557], "tags": {"amenity": "school", "education": "school", "name": "成都金宝贝脑伤儿童关爱中心"}}, {"type": "way", "id": 1347080995, "center": {"lat": 30.6184929, "lon": 104.0949092}, "nodes": [12460867837, 12460867838, 12460867839, 12460867840, 12460867837], "tags": {"amenity": "kindergarten", "name": "成都市锦江区东润幼儿园"}}, {"type": "way", "id": 1347081004, "center": {"lat": 30.618692, "lon": 104.0936667}, "nodes": [12460867879, 12460867880, 12460867881, 12460867882, 12460867883, 12460867884, 12460867885, 12460867886, 12460867879], "tags": {"amenity": "school", "name": "成都市七中育才学校(东湖校区)"}}, {"type": "way", "id": 1347086184, "center": {"lat": 30.6177471, "lon": 104.0986088}, "nodes": [12460913254, 12460913255, 12460913256, 12460913257, 12460913258, 12460913254], "tags": {"amenity": "police", "building": "yes", "name": "交警三分局"}}, {"type": "way", "id": 1347093109, "center": {"lat": 30.6229688, "lon": 104.0971904}, "nodes": [12460975771, 12460975772, 12460975773, 12460975774, 12460975771], "tags": {"amenity": "clinic", "building": "yes", "healthcare": "clinic"}}, {"type": "way", "id": 1347093110, "center": {"lat": 30.6231138, "lon": 104.0969054}, "nodes": [12460975775, 12460975776, 12460975777, 12460975778, 12460975775], "tags": {"amenity": "clinic", "building": "yes", "healthcare": "clinic"}}, {"type": "way", "id": 1347093111, "center": {"lat": 30.6228574, "lon": 104.0968969}, "nodes": [12460975779, 12460975780, 12460975781, 12460975782, 12460975779], "tags": {"amenity": "clinic", "building": "yes", "healthcare": "clinic"}}, {"type": "way", "id": 1347331124, "center": {"lat": 30.6294183, "lon": 104.0942782}, "nodes": [12463120233, 12463120234, 12463120235, 12463120236, 12463120237, 12463120238, 12463120239, 12463120240, 12463120233], "tags": {"amenity": "prep_school", "building": "yes", "name": "成都市锦江区青少年宫"}}, {"type": "way", "id": 1355933999, "center": {"lat": 30.6658291, "lon": 104.0902153}, "nodes": [12548971518, 12548971519, 12548971520, 12548971521, 12548971522, 12548971523, 12548971518], "tags": {"amenity": "prep_school", "building": "yes", "name": "成都市猛追湾游泳场游泳学校"}}, {"type": "way", "id": 1356107818, "center": {"lat": 30.6655894, "lon": 104.0790544}, "nodes": [12550779208, 12550779209, 12550779210, 12550779211, 12550779212, 12550779213, 12550779208], "tags": {"amenity": "school", "name": "成都市和平街小学"}}, {"type": "way", "id": 1356107886, "center": {"lat": 30.6673016, "lon": 104.080719}, "nodes": [12550779543, 12550779544, 12550779545, 12550779546, 12550779547, 12550779548, 12550779549, 12550779550, 12550779551, 12550779552, 12550779543], "tags": {"amenity": "school"}}, {"type": "way", "id": 1356111404, "center": {"lat": 30.661836, "lon": 104.0862992}, "nodes": [12550811315, 12550811316, 12550811317, 12550811318, 12550811319, 12550811320, 12550811315], "tags": {"amenity": "kindergarten", "name": "成都市锦江区天涯石幼儿园"}}, {"type": "way", "id": 1356175182, "center": {"lat": 30.6538074, "lon": 104.0882608}, "nodes": [12551384585, 12551384586, 12551384587, 12551384588, 12551384589, 12551384590, 12551384591, 12551384592, 12551384593, 12551384594, 12551384595, 12551384596, 12551384597, 12551384598, 12551384599, 12551384600, 12551384601, 12551384602, 12551384585], "tags": {"amenity": "hospital", "healthcare": "hospital", "name": "四川电力医院"}}, {"type": "way", "id": 1356349283, "center": {"lat": 30.6486783, "lon": 104.097796}, "nodes": [12553389860, 12553389861, 12553389862, 12553389863, 12553389860], "tags": {"amenity": "school", "name": "成都爱思瑟国际学校"}}, {"type": "way", "id": 1356406601, "center": {"lat": 30.6331789, "lon": 104.0958056}, "nodes": [12553893340, 12553893341, 12553893342, 12553893343, 12553893344, 12553893345, 12553893346, 12553893347, 12553893348, 12553893349, 12553893350, 12553893351, 12553893340], "tags": {"amenity": "police", "building": "yes", "name": "锦江区公安分局"}}, {"type": "way", "id": 1356603602, "center": {"lat": 30.6453733, "lon": 104.1028822}, "nodes": [12555860401, 12555860402, 12555860403, 12555860404, 12555860405, 12555860406, 12555860407, 12555860408, 12555860401], "tags": {"amenity": "school", "name": "成都市锦江区教育科学研究院附小"}}, {"type": "way", "id": 1356603627, "center": {"lat": 30.6436161, "lon": 104.1015134}, "nodes": [12555860538, 12555860539, 12555860540, 12555860541, 12555860542, 12555860543, 12555860538], "tags": {"amenity": "police", "name": "牛市口派出所"}}, {"type": "way", "id": 1356611112, "center": {"lat": 30.6428072, "lon": 104.0960838}, "nodes": [12555886468, 12555886469, 12555886470, 12555886471, 12555886468], "tags": {"amenity": "police", "building": "yes"}}, {"type": "way", "id": 1356611113, "center": {"lat": 30.6426009, "lon": 104.096436}, "nodes": [12555886472, 12555886473, 12555886474, 12555886475, 12555886472], "tags": {"amenity": "police", "building": "yes", "name": "成都市公安局锦江分局经济犯罪侦查大队"}}, {"type": "way", "id": 1356611158, "center": {"lat": 30.6389443, "lon": 104.0945732}, "nodes": [12555932151, 12555932152, 12555932153, 12555932154, 12555932155, 12555932156, 12555932157, 12555932158, 12555932159, 12555932160, 12555932151], "tags": {"amenity": "school", "name": "盐道街小学-东区"}}, {"type": "way", "id": 1356625404, "center": {"lat": 30.6409862, "lon": 104.1087223}, "nodes": [12556052653, 12556052654, 12556052655, 12556052656, 12556052653], "tags": {"amenity": "police", "building": "yes", "name": "沙河派出所"}}, {"type": "way", "id": 1356625411, "center": {"lat": 30.6423268, "lon": 104.1083158}, "nodes": [12556052706, 12556052707, 12556052708, 12556052709, 12556052706], "tags": {"amenity": "kindergarten", "education": "kindergarten", "name": "成都市盐道街小学(汇泉校区)"}}, {"type": "way", "id": 1356625412, "center": {"lat": 30.6419297, "lon": 104.108536}, "nodes": [12556052710, 12556052711, 12556052712, 12556052713, 12556052714, 12556052715, 12556052710], "tags": {"amenity": "school", "education": "school", "name": "成都市盐道街小学(汇泉校区)"}}, {"type": "way", "id": 1356625423, "center": {"lat": 30.6428391, "lon": 104.1078485}, "nodes": [12556052793, 12556052794, 12556052795, 12556052796, 12556052797, 12556052793], "tags": {"amenity": "dancing_school", "building": "yes", "education": "dancing_school", "name": "艾薇芭蕾艺术中心(芭蕾之门)"}}, {"type": "way", "id": 1357358185, "center": {"lat": 30.6231991, "lon": 104.1313878}, "nodes": [12562218198, 12562218199, 12562218200, 12562218201, 12562218202, 12562218203, 12562218204, 12562218205, 12562218206, 12562218207, 12562218208, 12562218209, 12562218210, 12562218198], "tags": {"amenity": "school", "education": "school", "name": "四川师大附中外国语学校"}}, {"type": "way", "id": 1357703452, "center": {"lat": 30.6324569, "lon": 104.1157125}, "nodes": [12564823302, 12564823303, 12564823304, 12564823305, 12564823306, 12564823307, 12564823308, 12564823309, 12564823310, 12564823311, 12564823312, 12564823302], "tags": {"amenity": "kindergarten", "education": "kindergarten", "name": "英贝·思塔尔森"}}, {"type": "way", "id": 1357703456, "center": {"lat": 30.6334169, "lon": 104.116642}, "nodes": [12564823327, 12564823328, 12564823329, 12564823330, 12564823331, 12564823332, 12564823333, 12564823334, 12564823335, 12564823336, 12564823337, 12564823338, 12564823339, 12564823340, 12564823341, 12564823342, 12564823343, 12564823327], "tags": {"amenity": "college", "education": "college", "name": "四川省林业干部学校"}}, {"type": "way", "id": 1357713073, "center": {"lat": 30.6256915, "lon": 104.1091403}, "nodes": [12564905126, 12564905116, 12564905117, 12564905127, 12564905126], "tags": {"amenity": "school", "education": "school", "name": "马家沟小学"}}, {"type": "way", "id": 1357713100, "center": {"lat": 30.6268833, "lon": 104.1110892}, "nodes": [12564905260, 12564905261, 12564905262, 12564905263, 12564905264, 12564905265, 12564905266, 12564905267, 12564905268, 12564905269, 12564905270, 12564905260], "tags": {"amenity": "college", "education": "college", "name": "成都市射击射箭运动学校"}}, {"type": "way", "id": 1357729903, "center": {"lat": 30.6281786, "lon": 104.1202892}, "nodes": [12565101874, 12565101875, 12565101876, 12565101877, 12565101878, 12565101879, 12565101880, 12565101874], "tags": {"amenity": "school", "education": "school", "name": "成都市沙河堡小学"}}, {"type": "way", "id": 1357729907, "center": {"lat": 30.6272529, "lon": 104.1221234}, "nodes": [12565101897, 12565101898, 12565101899, 12565101900, 12565101901, 12565101902, 12565101903, 12565101904, 12565101905, 12565101906, 12565101907, 12565101897], "tags": {"amenity": "school", "education": "school", "name": "成都大学附属中学"}}, {"type": "way", "id": 1357729913, "center": {"lat": 30.6262496, "lon": 104.1208928}, "nodes": [12565101933, 12565101934, 12565101935, 12565101936, 12565101937, 12565101938, 12565101939, 12565101940, 12565101933], "tags": {"amenity": "hospital", "healthcare": "hospital", "name": "四川友谊医院"}}, {"type": "way", "id": 1357804770, "center": {"lat": 30.6201943, "lon": 104.1175329}, "nodes": [12565735054, 12565735055, 12565735056, 12565735057, 12565735058, 12565735059, 12565735060, 12565735061, 12565735054], "tags": {"amenity": "college", "education": "college", "name": "成都锦欣职业技能培训学校"}}, {"type": "way", "id": 1358038057, "center": {"lat": 30.5947515, "lon": 104.1302479}, "nodes": [12567664573, 12567664574, 12567672703, 12567672704, 12567672705, 12567672702, 12567664575, 12567664576, 12567664577, 12567664578, 12567664579, 12567664580, 12567664581, 12567664582, 12567664583, 12567664584, 12567664585, 12567664586, 12567664573], "tags": {"amenity": "police", "building": "yes", "name": "成龙路派出所"}}, {"type": "way", "id": 1358038142, "center": {"lat": 30.5950828, "lon": 104.1408411}, "nodes": [12567672836, 12567672837, 12567672838, 12567672839, 12567672840, 12567672841, 12567672836], "tags": {"amenity": "kindergarten", "name": "成都市第三幼儿园528园区"}}, {"type": "way", "id": 1358038183, "center": {"lat": 30.6056527, "lon": 104.1494428}, "nodes": [12567673122, 12567673123, 12567673124, 12567673125, 12567673126, 12567673127, 12567673122], "tags": {"amenity": "school", "education": "school", "name": "锦江外国语小学-东区"}}, {"type": "way", "id": 1358097434, "center": {"lat": 30.5910083, "lon": 104.139297}, "nodes": [12568191265, 12568191266, 12568191267, 12568191268, 12568191265], "tags": {"amenity": "police", "building": "yes", "name": "三圣派出所"}}, {"type": "way", "id": 1364514705, "center": {"lat": 30.5746027, "lon": 104.1070298}, "nodes": [12636091898, 12636091899, 12636091900, 12636091901, 12636091902, 12636091903, 12636091904, 12636091905, 12636091898], "tags": {"amenity": "police", "building": "yes", "name": "高速公路一支队五大队"}}, {"type": "way", "id": 1385585826, "center": {"lat": 30.6195741, "lon": 104.1245371}, "nodes": [9300687051, 12828376680, 9312671985, 9312671987, 12828376675, 12828376674, 9300687051], "tags": {"amenity": "kindergarten", "education": "kindergarten", "full_name": "成都市锦江区锦绣幼儿园", "name": "锦绣幼儿园"}}, {"type": "node", "id": 1314184374, "lat": 30.6407642, "lon": 104.0766317, "tags": {"amenity": "university", "name": "四川音乐学院", "name:en": "Sichuan Conservatory of Music"}}, {"type": "node", "id": 2716031253, "lat": 30.6104738, "lon": 104.0779287, "tags": {"amenity": "hospital", "healthcare": "hospital", "name": "安琪儿妇产医院", "name:zh": "安琪儿妇产医院"}}, {"type": "node", "id": 3266802704, "lat": 30.617221, "lon": 104.0518735, "tags": {"amenity": "kindergarten", "name": "成都妈咪家双语幼儿学校", "name:en": "Chengdu Mommy Baby Bilingual Kindergarten"}}, {"type": "node", "id": 3582961919, "lat": 30.6436669, "lon": 104.0475111, "tags": {"amenity": "kindergarten", "name": "西南民族大学幼儿园"}}, {"type": "node", "id": 4235436727, "lat": 30.6043455, "lon": 104.0736044, "tags": {"amenity": "police", "name": "三瓦窑派出所"}}, {"type": "node", "id": 4661854188, "lat": 30.5915278, "lon": 104.0513544, "tags": {"addr:city": "成都市", "addr:housenumber": "516", "addr:street": "府城大道", "amenity": "hospital", "emergency": "yes", "healthcare": "hospital", "name": "成都市急救指挥中心(120)"}}, {"type": "node", "id": 4702508991, "lat": 30.5900136, "lon": 104.0524212, "tags": {"amenity": "hospital", "healthcare": "hospital", "name": "拉斐尔口腔", "name:zh": "拉斐尔口腔", "wheelchair": "yes"}}, {"type": "node", "id": 4716620990, "lat": 30.5987293, "lon": 104.0737298, "tags": {"amenity": "school"}}, {"type": "node", "id": 4724343816, "lat": 30.6298912, "lon": 104.0666701, "tags": {"addr:city": "成都市", "addr:housenumber": "6号", "addr:street": "成科西路", "amenity": "police", "name": "跳伞塔派出所"}}, {"type": "node", "id": 4973209508, "lat": 30.6133232, "lon": 104.042716, "tags": {"amenity": "school", "name": "成都师范银都小学紫薇校区"}}, {"type": "node", "id": 5599540449, "lat": 30.6383765, "lon": 104.0737406, "tags": {"amenity": "college", "name": "四川广播电视大学"}}, {"type": "node", "id": 6685885873, "lat": 30.6358333, "lon": 104.0783018, "tags": {"amenity": "police", "name": "派出所"}}, {"type": "node", "id": 6783954785, "lat": 30.6167889, "lon": 104.0601109, "tags": {"addr:housenumber": "1-3-1", "addr:street": "桐梓林东路", "amenity": "school", "name:en": "Chinese Corner", "phone": "+86 28 8555 4728", "website": "https://www.chinesecorner.cn/"}}, {"type": "node", "id": 6975489785, "lat": 30.6321206, "lon": 104.0681869, "tags": {"addr:housenumber": "2", "amenity": "school", "name": "IMHE"}}, {"type": "node", "id": 7070965885, "lat": 30.617333, "lon": 104.0716538, "tags": {"amenity": "school", "name:en": "Kid Castle Weiken School"}}, {"type": "node", "id": 9003487074, "lat": 30.6497821, "lon": 104.0384869, "tags": {"amenity": "hospital", "healthcare": "hospital", "name": "武侯区浆洗街社区卫生服务中心"}}, {"type": "node", "id": 9891825961, "lat": 30.6005827, "lon": 104.0325586, "tags": {"amenity": "school", "name": "成都沃顿公学"}}, {"type": "node", "id": 9924118549, "lat": 30.649613, "lon": 103.9676538, "tags": {"amenity": "police", "name": "成都市公安局武侯区分局机投桥派出所"}}, {"type": "node", "id": 10069073081, "lat": 30.5938626, "lon": 103.9762129, "tags": {"amenity": "police", "name": "金花桥派出所"}}, {"type": "node", "id": 10081296668, "lat": 30.6056526, "lon": 103.9790469, "tags": {"amenity": "kindergarten", "name": "武外幼儿园"}}, {"type": "node", "id": 10101126207, "lat": 30.6271679, "lon": 103.9804463, "tags": {"amenity": "hospital", "healthcare": "hospital", "name": "成都聚焦超声医院"}}, {"type": "node", "id": 10101214899, "lat": 30.6354316, "lon": 103.9811415, "tags": {"amenity": "hospital", "healthcare": "hospital", "name": "武侯区第二人民医院"}}, {"type": "node", "id": 10795418489, "lat": 30.5945299, "lon": 103.9681321, "tags": {"amenity": "clinic", "healthcare": "clinic", "name": "俊茂诊所"}}, {"type": "node", "id": 12444429577, "lat": 30.6383518, "lon": 104.043336, "tags": {"amenity": "clinic", "healthcare": "clinic", "name": "罗氏骨科"}}, {"type": "node", "id": 12447431322, "lat": 30.6343522, "lon": 104.0407751, "tags": {"amenity": "clinic", "healthcare": "clinic", "name": "肖家河社区卫生服务中心健康管理中心"}}, {"type": "node", "id": 12449616002, "lat": 30.6403608, "lon": 104.0346092, "tags": {"amenity": "kindergarten", "name": "虹桥幼儿园"}}, {"type": "node", "id": 12451077431, "lat": 30.6326272, "lon": 104.052692, "tags": {"amenity": "dancing_school", "name": "聆音艺术中心(芳草店)"}}, {"type": "node", "id": 12451125607, "lat": 30.6309219, "lon": 104.0647003, "tags": {"amenity": "music_school", "name": "百家筝鸣古筝艺术中心(成都分校)"}}, {"type": "node", "id": 12451125612, "lat": 30.6306635, "lon": 104.0635228, "tags": {"amenity": "hospital", "healthcare": "hospital", "name": "悦瞳眼科医院"}}, {"type": "node", "id": 12451125850, "lat": 30.6275293, "lon": 104.0618757, "tags": {"amenity": "clinic", "healthcare": "clinic", "name": "武侯区人南诊所"}}, {"type": "node", "id": 12451223508, "lat": 30.6274433, "lon": 104.0567153, "tags": {"amenity": "prep_school", "name": "成都市群星美术学校(玉林西街后巷)"}}, {"type": "node", "id": 12451223723, "lat": 30.6312502, "lon": 104.0561831, "tags": {"amenity": "clinic", "healthcare": "clinic", "name": "成都市武侯区玉林北路社区卫生服务站"}}, {"type": "node", "id": 12451304346, "lat": 30.6270006, "lon": 104.0522808, "tags": {"amenity": "prep_school", "name": "成都高新区芳草老年大学"}}, {"type": "node", "id": 12453149181, "lat": 30.6257609, "lon": 104.0698949, "tags": {"amenity": "clinic", "healthcare": "clinic", "name": "洪春诊所(棕南西街)"}}, {"type": "node", "id": 12453198052, "lat": 30.6254655, "lon": 104.0746042, "tags": {"amenity": "dancing_school", "name": "舞蹈家DANCEHOME(川大望江店)"}}, {"type": "node", "id": 12463232678, "lat": 30.6478547, "lon": 104.002744, "tags": {"amenity": "clinic", "healthcare": "clinic", "name": "成都市武侯区晋阳社区卫生服务中心"}}, {"type": "node", "id": 12463251400, "lat": 30.6462678, "lon": 103.9980127, "tags": {"amenity": "clinic", "healthcare": "clinic", "name": "肖龙口腔"}}, {"type": "node", "id": 12463259156, "lat": 30.6426145, "lon": 104.0017553, "tags": {"amenity": "prep_school", "name": "能动英语"}}, {"type": "node", "id": 12466638453, "lat": 30.6538345, "lon": 104.0042493, "tags": {"amenity": "music_school", "name": "大蜀艺术中心(晋阳路校区)"}}, {"type": "node", "id": 12466871946, "lat": 30.657426, "lon": 103.998171, "tags": {"amenity": "kindergarten", "name": "新杨杨幼儿园"}}, {"type": "node", "id": 12466994588, "lat": 30.6510498, "lon": 103.9864976, "tags": {"amenity": "hospital", "healthcare": "hospital", "name": "成都同神堂中西医结合医院"}}, {"type": "node", "id": 12471445048, "lat": 30.6470103, "lon": 104.0212333, "tags": {"amenity": "prep_school", "name": "兔子格斗(财富双楠写字楼店)"}}, {"type": "node", "id": 12471445298, "lat": 30.642942, "lon": 104.0254385, "tags": {"amenity": "prep_school", "name": "弈学园围棋(双楠校区)"}}, {"type": "node", "id": 12471445359, "lat": 30.6462928, "lon": 104.0238939, "tags": {"amenity": "prep_school", "name": "仁财会计教育(双楠路)"}}, {"type": "node", "id": 12475285915, "lat": 30.6378706, "lon": 104.0483063, "tags": {"amenity": "hospital", "healthcare": "hospital", "name": "成都西部白癜风医院"}}, {"type": "node", "id": 12475286063, "lat": 30.6378165, "lon": 104.0508089, "tags": {"amenity": "hospital", "healthcare": "hospital", "name": "成都武侯甘露海藏医院"}}, {"type": "node", "id": 12475286376, "lat": 30.6386219, "lon": 104.0512341, "tags": {"amenity": "driving_school", "name": "长征驾校总校(武侯总部)"}}, {"type": "node", "id": 12475365589, "lat": 30.6361541, "lon": 104.0596097, "tags": {"amenity": "dancing_school", "name": "茗澄舞韵舞蹈工作室"}}, {"type": "node", "id": 12475616317, "lat": 30.6383137, "lon": 104.0789902, "tags": {"amenity": "dancing_school", "name": "六艺堂舞蹈(川音校区)"}}, {"type": "node", "id": 12475616551, "lat": 30.6410992, "lon": 104.0801353, "tags": {"amenity": "dancing_school", "name": "四川成育艺术中心"}}, {"type": "node", "id": 12497554307, "lat": 30.5589092, "lon": 104.0304364, "tags": {"amenity": "hospital", "healthcare": "hospital", "name": "百合花口腔诊所"}}, {"type": "node", "id": 12497554309, "lat": 30.560367, "lon": 104.030413, "tags": {"amenity": "kindergarten", "name": "金果果幼儿教育"}}, {"type": "node", "id": 12497921269, "lat": 30.5542687, "lon": 104.0298651, "tags": {"amenity": "kindergarten", "name": "七巧园幼儿教育"}}, {"type": "node", "id": 12498108177, "lat": 30.5507204, "lon": 104.0348176, "tags": {"amenity": "prep_school", "name": "About Time艺术空间"}}, {"type": "node", "id": 12498108185, "lat": 30.5499442, "lon": 104.0351165, "tags": {"amenity": "prep_school", "name": "成艺之星少儿美术(大源校区)"}}, {"type": "node", "id": 12498108190, "lat": 30.5502579, "lon": 104.0357189, "tags": {"amenity": "dancing_school", "name": "青梧拉丁舞"}}, {"type": "node", "id": 12498172477, "lat": 30.5449174, "lon": 104.0261892, "tags": {"amenity": "kindergarten", "name": "成都高新区石羊第十六幼儿园"}}, {"type": "node", "id": 12498296668, "lat": 30.5450063, "lon": 104.0268897, "tags": {"amenity": "kindergarten", "name": "成都高新区石羊第十四幼儿园"}}, {"type": "node", "id": 12498296850, "lat": 30.5471888, "lon": 104.0305579, "tags": {"amenity": "dancing_school", "name": "自由戏剧(天府三街店)"}}, {"type": "node", "id": 12498362957, "lat": 30.5481293, "lon": 104.0349444, "tags": {"amenity": "prep_school", "name": "弈学园围棋(大源校区)"}}, {"type": "node", "id": 12500867665, "lat": 30.5601436, "lon": 104.0448477, "tags": {"amenity": "music_school", "name": "乐洋千川音乐空间·demo艺术"}}, {"type": "node", "id": 12500867666, "lat": 30.5592399, "lon": 104.0442425, "tags": {"amenity": "prep_school", "name": "学而思素养(大源校区)"}}, {"type": "node", "id": 12500945491, "lat": 30.5612542, "lon": 104.0473082, "tags": {"amenity": "dancing_school", "name": "美琪中国舞(水街店)"}}, {"type": "node", "id": 12500945568, "lat": 30.5597808, "lon": 104.0509962, "tags": {"amenity": "prep_school", "name": "有点想法实验室"}}, {"type": "node", "id": 12500945569, "lat": 30.5595375, "lon": 104.0510937, "tags": {"amenity": "dancing_school", "name": "成艺国际舞蹈(南门旗舰店)"}}, {"type": "node", "id": 12501019300, "lat": 30.5470285, "lon": 104.050716, "tags": {"amenity": "kindergarten", "name": "成都高新区万汇幼儿学府"}}, {"type": "node", "id": 12607217398, "lat": 30.638146, "lon": 104.0204023, "tags": {"amenity": "kindergarten"}}, {"type": "node", "id": 12612416143, "lat": 30.6281517, "lon": 104.0201773, "tags": {"amenity": "dancing_school", "name": "星钻流行舞蹈"}}, {"type": "node", "id": 12612416656, "lat": 30.6254503, "lon": 104.0296546, "tags": {"amenity": "dancing_school", "name": "天姿国际舞蹈艺术馆"}}, {"type": "node", "id": 12612973594, "lat": 30.6163132, "lon": 104.0292465, "tags": {"amenity": "music_school", "name": "国演冰心传媒艺考"}}, {"type": "node", "id": 12614924781, "lat": 30.6095624, "lon": 104.0232028, "tags": {"amenity": "dancing_school", "name": "六艺堂舞蹈培训"}}, {"type": "node", "id": 12614924782, "lat": 30.6088711, "lon": 104.0229436, "tags": {"amenity": "dancing_school", "name": "成都吾来舞往艺术中心"}}, {"type": "node", "id": 12615651675, "lat": 30.6142726, "lon": 104.0402911, "tags": {"amenity": "hospital", "healthcare": "hospital", "name": "圣约瑟康复中心"}}, {"type": "node", "id": 12618059126, "lat": 30.6141995, "lon": 104.0759675, "tags": {"amenity": "music_school", "name": "梦龙钢琴工作室"}}, {"type": "node", "id": 12618141511, "lat": 30.6182401, "lon": 104.0725702, "tags": {"amenity": "dancing_school", "name": "艺蓉舞校"}}, {"type": "node", "id": 12618335921, "lat": 30.6044695, "lon": 104.0548671, "tags": {"amenity": "hospital", "healthcare": "hospital", "name": "瞳仁视康眼科医院"}}, {"type": "node", "id": 12627909997, "lat": 30.6124975, "lon": 104.0361764, "tags": {"amenity": "dancing_school", "name": "童森舞蹈(编舞)工作室"}}, {"type": "node", "id": 12628198277, "lat": 30.609865, "lon": 104.0373477, "tags": {"amenity": "police", "name": "肖家河派出所"}}, {"type": "node", "id": 12628198335, "lat": 30.606207, "lon": 104.0381709, "tags": {"amenity": "hospital", "healthcare": "hospital", "name": "成都高新同爱医院"}}, {"type": "node", "id": 12628331616, "lat": 30.598205, "lon": 104.0383424, "tags": {"amenity": "dancing_school", "name": "兮朴舞蹈"}}, {"type": "node", "id": 12628420427, "lat": 30.5872227, "lon": 104.0191481, "tags": {"amenity": "police", "name": "成都市轻微道路交通事故快速处高新区服务中心"}}, {"type": "node", "id": 12628471218, "lat": 30.5857015, "lon": 104.0404243, "tags": {"amenity": "music_school", "name": "交子爱乐世界名品钢琴馆"}}, {"type": "node", "id": 13382696123, "lat": 30.6466729, "lon": 104.0579855, "tags": {"amenity": "hospital", "healthcare": "hospital", "name": "华西医院"}}, {"type": "way", "id": 288171059, "center": {"lat": 30.637957, "lon": 104.0721098}, "nodes": [2917193930, 2917193931, 11775496746, 2917193932, 11775496736, 2917193933, 2917193934, 11775496735, 2677723139, 11775496743, 11775496744, 2917193935, 2917193936, 7334966834, 2917193930], "tags": {"amenity": "school", "education": "school", "name": "成都市第七中学（林荫校区）", "short_name": "成都市第七中学", "shortest_name": "成都七中", "wikipedia": "zh:四川省成都市第七中学"}}, {"type": "way", "id": 299425432, "center": {"lat": 30.6413458, "lon": 104.0472781}, "nodes": [3034157101, 4137539383, 4137539386, 4137539387, 4137539390, 3034157102, 3034157103, 3158040408, 3158040409, 3158040410, 3158040411, 3158040412, 3158040413, 3158040414, 3034157104, 314655380, 4137539501, 4137539500, 3034157106, 3034157101], "tags": {"amenity": "university", "name": "西南民族大学（武侯校区）", "name:en": "Wuhou Campus, Southwest University for Nationalities", "name:zh": "西南民族大学（武侯校区）", "wikidata": "Q920505", "wikipedia": "zh:西南民族大学"}}, {"type": "way", "id": 299440043, "center": {"lat": 30.6330567, "lon": 104.0818819}, "nodes": [3034312345, 3034312346, 6652362747, 6652362748, 6652362750, 6652362749, 5141468622, 5141468623, 5141458220, 5141468621, 6497535197, 6497535198, 5141458218, 5141458219, 5141458217, 3034312347, 6497535201, 6685885835, 6685885834, 6685885833, 6497535202, 6497535200, 6497535199, 3034312348, 2709174921, 3034312349, 3034312350, 6497535203, 3034312351, 3034312352, 3034312353, 3034312354, 6685886038, 3034312355, 3034312356, 8910186970, 8910186974, 6685886036, 6685886035, 3034312357, 8910186996, 6187569883, 2709174920, 6187569882, 6685886065, 3034312358, 6685886067, 3034312359, 3034312345], "tags": {"amenity": "university", "name": "四川大学（望江校区）", "name:en": "Sichuan University (Wangjiang Campus)", "name:zh": "四川大学（望江校区）", "short_name": "四川大学"}}, {"type": "way", "id": 314048284, "center": {"lat": 30.5406307, "lon": 104.0633004}, "nodes": [3200831525, 4767444740, 4767444733, 4767444734, 6242841587, 3200831526, 3200831527, 8258860849, 8258860819, 8258860820, 3200831528, 3200831529, 3200831530, 3200831531, 3200831532, 3200831525], "tags": {"addr:city": "成都", "addr:housenumber": "1340", "addr:postcode": "610042", "addr:street": "天府大道中段", "amenity": "school", "name": "成都美视国际学校", "name:zh": "成都美视国际学校"}}, {"type": "way", "id": 314048287, "center": {"lat": 30.5567683, "lon": 104.0533657}, "nodes": [3200831547, 3200831548, 3200831549, 3200831550, 3200831551, 3200831547], "tags": {"addr:city": "成都", "addr:housenumber": "32", "addr:postcode": "610041", "addr:street": "盛治街", "amenity": "school", "name": "益州小学", "name:en": "Yizhou Primary School", "name:zh": "益州小学"}}, {"type": "way", "id": 314292931, "center": {"lat": 30.6345251, "lon": 104.0358068}, "nodes": [3203414191, 3203414192, 3203414193, 3203414194, 3203414195, 3203414196, 3203414197, 3203414198, 3203414199, 3203414200, 3203414201, 3203414202, 3203414191], "tags": {"amenity": "school", "name": "西川中学", "name:en": "Xichuan Middle School", "name:zh": "西川中学"}}, {"type": "way", "id": 342766150, "center": {"lat": 30.6423303, "lon": 104.0673851}, "nodes": [4794944081, 6187569844, 6187569851, 6187569852, 4794992609, 1159174899, 6187569853, 3943038385, 671587308, 671587299, 4794944087, 671587282, 6187569849, 6187569850, 4794944081], "tags": {"addr:city": "成都市", "addr:district": "武侯区", "addr:housenumber": "17", "addr:province": "四川省", "addr:street": "人民南路三段", "amenity": "college", "name": "四川大学（华西校区东区）", "name:zh": "四川大学（华西校区东区）"}}, {"type": "way", "id": 352526906, "center": {"lat": 30.6490898, "lon": 104.0419351}, "nodes": [5849447113, 1312615980, 4225497273, 7813563585, 8440216188, 8440216189, 8440216190, 8440216191, 8440216186, 8440216195, 8440216196, 8440216192, 8440216193, 8440216194, 3582961911, 3582961904, 8440216197, 8440216203, 8440216202, 8440216201, 8440216200, 8440216199, 8440216206, 8440216207, 8440216208, 8440216209, 3582961917, 8440216210, 3582961909, 3582961907, 8440216212, 8440216177, 4225497275, 8440216181, 8440216180, 8440216178, 8440216179, 4225497271, 8440216172, 432432561, 8440216185, 8440216184, 8440216174, 8440216173, 5849447113], "tags": {"amenity": "university", "check_date": "2024-08-05", "name": "成都体育学院（武侯校区）", "name:en": "Chengdu Sport University (Wuhou Campus)", "name:zh": "成都体育学院（武侯校区）", "operator": "成都体育学院", "operator:type": "university", "short_name": "成都体育学院", "short_name:en": "Chengdu Sport University", "shortest_name": "成体", "shortest_name:en": "CDSU", "wikidata": "Q5091323", "wikipedia": "zh:成都体育学院"}}, {"type": "way", "id": 391145281, "center": {"lat": 30.6440432, "lon": 104.0581591}, "nodes": [4794944083, 12988852930, 4794975958, 4794975960, 8761324273, 8761324274, 12988930820, 8761324275, 12988930819, 8761324276, 8761324280, 8761324279, 8761324278, 8761324277, 4794975961, 4794975962, 8761324272, 8761324271, 8761324270, 4794975963, 8761324269, 3523308830, 8761324268, 3523308824, 4794975968, 4794975967, 9692673054, 9693974716, 8761324282, 3943038360, 8761324281, 4794944083], "tags": {"addr:city": "成都市", "addr:district": "武侯区", "addr:housenumber": "37", "addr:province": "四川省", "addr:street": "国学巷", "amenity": "hospital", "emergency": "yes", "healthcare": "hospital", "name": "华西医院", "name:en": "West China Hospital", "name:zh": "华西医院", "official_name": "四川大学华西医院", "official_name:en": "West China Hospital, Sichuan University", "official_name:zh": "四川大学华西医院", "operator": "四川大学华西医学中心", "operator:type": "university", "wikidata": "Q10924797"}}, {"type": "way", "id": 391145287, "center": {"lat": 30.6448175, "lon": 104.0629249}, "nodes": [4794944086, 10770303256, 3943038378, 10770303269, 10770303270, 6187569846, 4794992610, 4794944086], "tags": {"addr:city": "成都市", "addr:district": "武侯区", "addr:housenumber": "14", "addr:province": "四川省", "addr:street": "人民南路三段", "amenity": "hospital", "healthcare": "hospital", "healthcare:speciality": "stomatology", "name": "华西口腔医院", "name:en": "West China Hospital of Stomatology", "name:zh": "华西口腔医院", "official_name": "四川大学华西口腔医院", "official_name:en": "West China Hospital of Stomatology, Sichuan University", "official_name:zh": "四川大学华西口腔医院", "operator": "四川大学华西医学中心", "operator:type": "university"}}, {"type": "way", "id": 391145288, "center": {"lat": 30.6426703, "lon": 104.0629707}, "nodes": [6187569845, 4794975951, 4794975944, 6187569847, 6187569845], "tags": {"addr:city": "成都市", "addr:district": "武侯区", "addr:housenumber": "18", "addr:province": "四川省", "addr:street": "人民南路三段", "amenity": "hospital", "emergency": "yes", "healthcare": "hospital", "name": "华西第四医院", "name:en": "No.4 West China Teaching Hospital", "name:zh": "华西第四医院", "official_name": "四川大学华西第四医院", "official_name:en": "No.4 West China Teaching Hospital, Sichuan University", "official_name:zh": "四川大学华西第四医院", "operator": "四川大学华西医学中心", "operator:type": "university"}}, {"type": "way", "id": 412069034, "center": {"lat": 30.6119216, "lon": 104.050556}, "nodes": [4136052352, 4136052353, 4136052354, 4136052355, 9457155317, 4136052356, 9457121715, 9457167518, 9457167517, 9457167519, 4972899547, 4136052352], "tags": {"amenity": "school", "name": "四川省成都高新区实验小学"}}, {"type": "way", "id": 444490843, "center": {"lat": 30.6473864, "lon": 104.0692945}, "nodes": [4419711745, 4719868000, 4419711747, 4419711748, 4419711745], "tags": {"amenity": "school", "grades": "7-12", "name": "成都市龙江路小学", "name:en": "Longjianglu Primary School", "religion": "none"}}, {"type": "way", "id": 456734477, "center": {"lat": 30.6371654, "lon": 104.0655311}, "nodes": [5436607062, 4529725270, 4529725271, 4529725272, 4529725274, 4529725275, 5436607095, 4529725276, 5436607093, 4529725277, 5436607088, 5436607092, 4529725278, 5436607827, 4529725279, 4529725280, 4529725281, 5436607077, 5436607062], "tags": {"amenity": "college", "name": "西华大学人南校区", "website": "http://rnxq.xhu.edu.cn/"}}, {"type": "way", "id": 459158607, "center": {"lat": 30.632521, "lon": 104.0269874}, "nodes": [2560005452, 4550701249, 12610044595, 4550701248, 4550701247, 4550701246, 2560005452], "tags": {"amenity": "school", "name": "成都市第43中学校", "name:en": "Chengdu Number 43 Middle School", "name:zh": "成都市第43中学校"}}, {"type": "way", "id": 471991671, "center": {"lat": 30.5926655, "lon": 104.0472082}, "nodes": [4661433690, 4661433691, 4661433692, 4661433693, 4661433694, 4661433695, 4661433690], "tags": {"addr:city": "成都市", "addr:housenumber": "120", "addr:street": "雍翠路", "amenity": "school", "name": "成都高新区锦城小学"}}, {"type": "way", "id": 471992772, "center": {"lat": 30.5953682, "lon": 104.0596248}, "nodes": [4661463600, 4661463601, 4661463602, 9290341243, 4741684620, 4661463603, 4661463604, 4661463600], "tags": {"addr:city": "成都市", "addr:housenumber": "83", "addr:street": "天益街", "amenity": "school", "name": "成都职业技术学校高新校区"}}, {"type": "way", "id": 472000013, "center": {"lat": 30.5923977, "lon": 104.050166}, "nodes": [4661847963, 4661847964, 4661847967, 4661847968, 4692318032, 4661847970, 4661847971, 4661847972, 4661847973, 4661847963], "tags": {"addr:city": "成都市", "addr:housenumber": "18", "addr:street": "万象北路", "amenity": "hospital", "healthcare": "hospital", "name": "成都市第一人民医院", "toilets:wheelchair": "yes", "wheelchair": "yes"}}, {"type": "way", "id": 472002325, "center": {"lat": 30.5923005, "lon": 104.0532208}, "nodes": [4661857404, 4661857405, 4661857406, 4661857407, 4661857408, 4661857409, 4661857410, 4661857411, 4661857404], "tags": {"addr:city": "成都市", "addr:district": "成都市高新区", "addr:housenumber": "63号", "addr:postcode": "610041", "addr:province": "四川省", "addr:street": "芸锦路", "amenity": "school", "name": "成都七中初中学校（锦城校区）", "website": "http://www.cdqzcz.com/"}}, {"type": "way", "id": 472031020, "center": {"lat": 30.5895435, "lon": 104.0379329}, "nodes": [4661945127, 4661945128, 4661945129, 4661945130, 4661945127], "tags": {"amenity": "school", "name": "成都市财政贸易学校", "name:zh": "成都市财政贸易学校"}}, {"type": "way", "id": 472032353, "center": {"lat": 30.5800565, "lon": 104.0503271}, "nodes": [4661956405, 4661956406, 4661956407, 4661956408, 4661956409, 4661956410, 4661956405], "tags": {"amenity": "school", "name": "泡桐树小学天府校区", "name:zh": "泡桐树小学天府校区"}}, {"type": "way", "id": 475625295, "center": {"lat": 30.5620424, "lon": 104.0412151}, "nodes": [4693549650, 4693549651, 4693549652, 4693549653, 4693549654, 4693549655, 4693549656, 4693549657, 4693549650], "tags": {"amenity": "school", "name": "成都七中高新校区", "name:en": "Chengdu No.7 High School Hi-tech Campus", "name:zh": "成都七中高新校区"}}, {"type": "way", "id": 475625477, "center": {"lat": 30.5569563, "lon": 104.0335278}, "nodes": [4693550325, 4770502995, 4693550326, 4693550327, 4693550329, 4693550328, 4693550325], "tags": {"amenity": "school", "name": "成都高新大源学校", "name:zh": "成都高新大源学校"}}, {"type": "way", "id": 475633284, "center": {"lat": 30.6354219, "lon": 104.0689797}, "nodes": [4693610136, 4693610137, 4693610138, 4693610139, 4693610136], "tags": {"amenity": "school", "name": "磨子桥小学"}}, {"type": "way", "id": 475875836, "center": {"lat": 30.6062256, "lon": 104.0360176}, "nodes": [4695601714, 4695601715, 4695601716, 12627910251, 12627910252, 12627910253, 12627910254, 12627910255, 4695601717, 4695601714], "tags": {"amenity": "school", "name": "高新实验中学新北校区"}}, {"type": "way", "id": 475875837, "center": {"lat": 30.6068282, "lon": 104.0371294}, "nodes": [4695601718, 4695601719, 12627910250, 12627910249, 4695601720, 4695601721, 4695601722, 4695601718], "tags": {"amenity": "school", "name": "新光小学"}}, {"type": "way", "id": 475894620, "center": {"lat": 30.5829448, "lon": 104.042466}, "nodes": [4695764943, 4695764944, 4695764945, 4695764946, 4695764947, 4959941702, 4959941701, 4959941700, 4695764948, 4695764949, 4959941670, 4959941669, 4695764950, 4695764951, 4695764943], "tags": {"amenity": "school", "name": "石室天府中学", "name:en": "Shishi Tianfu Middle School", "name:zh": "石室天府中学"}}, {"type": "way", "id": 476291467, "center": {"lat": 30.6102444, "lon": 104.0384246}, "nodes": [4699007115, 4699007116, 4699007117, 4699007118, 4699007115], "tags": {"amenity": "kindergarten", "name": "贝诺尔幼儿园"}}, {"type": "way", "id": 476329031, "center": {"lat": 30.5985043, "lon": 104.0735916}, "nodes": [4699360093, 4699360094, 4699360095, 4699360096, 4699360097, 4699360098, 4699360093], "tags": {"addr:city": "桂溪街道", "addr:district": "成都市高新区", "addr:housenumber": "199号", "addr:postcode": "610041", "addr:province": "四川省", "addr:street": "天环街", "amenity": "school", "grades": "7-9", "name": "成都七中初中学校（天环校区）", "website": "http://www.cdqzcz.com/"}}, {"type": "way", "id": 476329038, "center": {"lat": 30.6056003, "lon": 104.0809381}, "nodes": [4699360127, 4699360128, 4699360129, 12618273433, 4699360130, 4699360131, 4699360132, 4699360127], "tags": {"amenity": "school", "name": "七中初中附小"}}, {"type": "way", "id": 482789711, "center": {"lat": 30.5804165, "lon": 104.0473942}, "nodes": [4755833114, 4755833113, 4755833112, 4755833109, 4755833110, 4755833111, 4755833114], "tags": {"amenity": "police", "building": "yes", "name": "新益州派出所"}}, {"type": "way", "id": 483940120, "center": {"lat": 30.5669912, "lon": 104.0483328}, "nodes": [4766964161, 11780301261, 4766964160, 11762973536, 7817113700, 4766964159, 4766964158, 4766964157, 4766964161], "tags": {"amenity": "school", "name": "成都蒙彼利埃小学", "name:en": "Montpellier Primary School in Chengdu", "name:zh": "成都蒙彼利埃小学"}}, {"type": "way", "id": 484011250, "center": {"lat": 30.5479957, "lon": 104.0277727}, "nodes": [4767592975, 8866141599, 4767592976, 8866141598, 4767592977, 4767592978, 8866141600, 4767592980, 4767592979, 4767592975], "tags": {"amenity": "school", "name": "成都教科院附属学校(西区)", "name:zh": "成都教科院附属学校(西区)"}}, {"type": "way", "id": 484023668, "center": {"lat": 30.5819951, "lon": 104.0319185}, "nodes": [4767717160, 4767717161, 4767717162, 4767717163, 4767717164, 4767717165, 4767717160], "tags": {"amenity": "school", "name": "成都高新新源学校", "name:zh": "成都高新新源学校", "wheelchair": "limited"}}, {"type": "way", "id": 484305956, "center": {"lat": 30.557614, "lon": 104.0322861}, "nodes": [4770502972, 4770502973, 4770502974, 4770502975, 4770502976, 4770502972], "tags": {"amenity": "kindergarten", "name": "桂溪双源幼儿园", "name:zh": "桂溪双源幼儿园"}}, {"type": "way", "id": 484309741, "center": {"lat": 30.5896437, "lon": 104.0709338}, "nodes": [4770541986, 10300603053, 4770541985, 4770541984, 4770541983, 4770541982, 4770541986], "tags": {"amenity": "school", "name": "成都高新区锦晖小学", "name:en": "Chengdu Hi-tech IDZ Jinhui Primary School", "name:zh": "成都高新区锦晖小学"}}, {"type": "way", "id": 485439480, "center": {"lat": 30.6314799, "lon": 104.0205591}, "nodes": [4782097633, 4782097634, 4782097636, 4782097637, 4782097638, 12607121399, 12607121400, 4782097633], "tags": {"amenity": "school", "name": "四川省交通管理学校", "name:zh": "四川省交通管理学校"}}, {"type": "way", "id": 486966308, "center": {"lat": 30.6443327, "lon": 104.0615853}, "nodes": [4794992611, 4794992612, 10770352563, 11736786321, 4794975951, 6187569845, 6187569847, 4794992610, 6187569846, 10770303270, 10770303269, 3943038378, 10770303256, 10770303255, 6187569848, 9003568078, 10770303257, 9003568080, 9003568082, 4794992615, 4794992616, 9003568096, 9003568087, 4794992617, 4794992611], "tags": {"addr:city": "成都市", "addr:district": "武侯区", "addr:housenumber": "16", "addr:province": "四川省", "addr:street": "人民南路三段", "amenity": "college", "name": "四川大学（华西校区西区）"}}, {"type": "way", "id": 529212216, "center": {"lat": 30.6122917, "lon": 104.0570511}, "nodes": [5141328511, 5141328512, 5141328513, 5141328514, 5141328515, 5141328516, 5141328518, 5141328517, 5141328511], "tags": {"amenity": "college", "name": "四川旅游学校"}}, {"type": "way", "id": 538385070, "center": {"lat": 30.6484271, "lon": 103.9958639}, "nodes": [5211327656, 5211327657, 5211327658, 5211327659, 5211327660, 5211327661, 5211327656], "tags": {"amenity": "school", "name": "成都市晋阳小学", "name:zh": "成都市晋阳小学"}}, {"type": "way", "id": 538385071, "center": {"lat": 30.6477695, "lon": 103.994627}, "nodes": [5211327661, 5211327662, 5211327663, 5211327664, 5211327656, 5211327661], "tags": {"amenity": "school", "name": "四川大学附属中学西区学校", "name:zh": "四川大学附属中学西区学校"}}, {"type": "way", "id": 538387240, "center": {"lat": 30.6052184, "lon": 104.0727127}, "nodes": [5211344126, 11724565513, 5211344128, 5211344129, 5211344130, 4959977773, 5211344126], "tags": {"amenity": "school", "name": "成都高新和平学校"}}, {"type": "way", "id": 543945074, "center": {"lat": 30.584307, "lon": 103.9862808}, "nodes": [8281301702, 2473397237, 5258093463, 5732990534, 8281301703, 9778889838, 9778889837, 9778889841, 9778889834, 8281301699, 8281301731, 8281301730, 9778839807, 9778839806, 5258152234, 5258152235, 5240820650, 5240820651, 5258152236, 8281301738, 8281301739, 2178755381, 8281301700, 10819925084, 5240820659, 8281301701, 8281301702], "tags": {"amenity": "university", "name": "成都信息工程大学（航空港校区）", "name:en": "Chengdu University of Information Technology", "name:zh": "成都信息工程大学（航空港校区）"}}, {"type": "way", "id": 572842088, "center": {"lat": 30.6040142, "lon": 104.0070471}, "nodes": [5503266575, 5503266576, 5503266577, 5503266578, 5503266579, 5503266575], "tags": {"amenity": "school", "name": "武侯高中"}}, {"type": "way", "id": 584407650, "center": {"lat": 30.6534557, "lon": 104.0377353}, "nodes": [5586338104, 5586338105, 5586338106, 5586338107, 5586338108, 5586338109, 5586338104], "tags": {"amenity": "hospital", "healthcare": "hospital", "healthcare:speciality": "orthopaedics", "name": "四川省骨科医院"}}, {"type": "way", "id": 587609164, "center": {"lat": 30.6307552, "lon": 104.0026196}, "nodes": [5612877030, 8212606723, 5612877031, 5612877032, 5612877033, 5612877030], "tags": {"amenity": "kindergarten", "name": "金苹果丽都花园城幼稚园"}}, {"type": "way", "id": 587609165, "center": {"lat": 30.6311601, "lon": 104.0032601}, "nodes": [5612877034, 5612877035, 5612877036, 5612877037, 5612877034], "tags": {"amenity": "school", "name": "龙江路小学祥云分校"}}, {"type": "way", "id": 587634750, "center": {"lat": 30.6536138, "lon": 103.9926928}, "nodes": [5613051880, 9568892031, 9568892026, 5613051881, 5613051882, 9568892032, 5613051883, 5613051884, 5613051885, 5613051886, 5613051880], "tags": {"amenity": "hospital", "healthcare": "hospital", "name": "四川省妇幼保健院", "wheelchair": "yes"}}, {"type": "way", "id": 659519941, "center": {"lat": 30.5502096, "lon": 104.0570663}, "nodes": [6174901130, 6174901131, 6174901132, 6174901133, 6174901130], "tags": {"amenity": "kindergarten", "name": "嘉德美润儿童之家"}}, {"type": "way", "id": 660893172, "center": {"lat": 30.6424519, "lon": 104.0825041}, "nodes": [6187569839, 6187569840, 6187569841, 6187569842, 6187569843, 6187569839], "tags": {"amenity": "university", "name": "成都市老年大学"}}, {"type": "way", "id": 665487436, "center": {"lat": 30.5725313, "lon": 104.0699037}, "nodes": [6228792833, 6228792830, 6228792831, 6228792832, 6228792833], "tags": {"amenity": "police", "building": "yes", "building:levels": "1"}}, {"type": "way", "id": 666058021, "center": {"lat": 30.5424403, "lon": 104.0738778}, "nodes": [6235769867, 6235769869, 6235769870, 6235769881, 6235769871, 6235769879, 6235769872, 6235769873, 6235769874, 6235769867], "tags": {"addr:housenumber": "133", "addr:street": "天华二路", "amenity": "school", "name": "成都高新区菁蓉学校"}}, {"type": "way", "id": 667038089, "center": {"lat": 30.5370012, "lon": 104.0628535}, "nodes": [6245566333, 6245566334, 6245566335, 6245566336, 6245566337, 6245566338, 6245566339, 6245566340, 6245566333], "tags": {"amenity": "school", "name": "成都外国语学校附属小学(高新美年校区)", "name:en": "Chengdu Foreign Language School Affiliated Primary School (Gaoxin Mei Nian Campus)"}}, {"type": "way", "id": 667052401, "center": {"lat": 30.5388306, "lon": 104.0511929}, "nodes": [6245695915, 8866141569, 6245695916, 6245695917, 6586678380, 6245695919, 12022945317, 6245695915], "tags": {"amenity": "school", "name": "成都市教科院附属中学（天府五街校区）"}}, {"type": "way", "id": 674962798, "center": {"lat": 30.6124702, "lon": 104.0675347}, "nodes": [6321107446, 6321107447, 12616013916, 12616013917, 6321107448, 6321107449, 6321107450, 6321107451, 12616014003, 12616014002, 12616014001, 12616014000, 12616013895, 12616013896, 12616013897, 6321107452, 12616013898, 6321107453, 6321107446], "tags": {"amenity": "hospital", "healthcare": "hospital", "name": "四川省肿瘤医院"}}, {"type": "way", "id": 701505908, "center": {"lat": 30.6318128, "lon": 104.0762414}, "nodes": [6588174426, 6588174427, 6588174428, 6588174429, 6588174430, 6588174431, 6682522699, 6588174432, 6682516582, 6588174433, 6588174434, 6588174426], "tags": {"amenity": "college", "email": "gaocaixi@scu.edu.cn", "fax": "+86 28 8540 5402", "name": "高分子科学与工程学院", "phone": "+86 28 8540 5401;+86 28 8546 1786", "website": "https://cpse.scu.edu.cn/"}}, {"type": "way", "id": 711177626, "center": {"lat": 30.6380147, "lon": 104.0837905}, "nodes": [6685885743, 6685885770, 6685885771, 6685885744, 6685885745, 6685885746, 6685885747, 6685885748, 6685885749, 6685885750, 6685885751, 8234693976, 6685885743], "tags": {"amenity": "school", "name": "四川省成都市第十二中学（川大附中）"}}, {"type": "way", "id": 711177634, "center": {"lat": 30.6353089, "lon": 104.084635}, "nodes": [6685885850, 6685885851, 6685885852, 6685885853, 6685885854, 6685885855, 6685885850], "tags": {"amenity": "kindergarten", "name": "四川大学第一幼儿园"}}, {"type": "way", "id": 711177635, "center": {"lat": 30.635847, "lon": 104.0836053}, "nodes": [6685885856, 6685885857, 6685885858, 6685885859, 6685885860, 6685885861, 6685885862, 6685885851, 6685885850, 6685885863, 6685885864, 6685885856], "tags": {"amenity": "school", "name": "川大附属实验小学"}}, {"type": "way", "id": 711177637, "center": {"lat": 30.6360345, "lon": 104.0783148}, "nodes": [6685885869, 6685885870, 6685885871, 6685885872, 6685885869], "tags": {"amenity": "police", "building": "yes"}}, {"type": "way", "id": 778945194, "center": {"lat": 30.5547888, "lon": 104.0276458}, "nodes": [7272802465, 7272802462, 7272802463, 7272802464, 7272802465], "tags": {"amenity": "police", "building": "yes", "building:levels": "1", "name": "桂溪辖区治安巡逻大队"}}, {"type": "way", "id": 785085448, "center": {"lat": 30.640291, "lon": 104.0771173}, "nodes": [7334966814, 7334966782, 9289887305, 7334966793, 9289887306, 7334966794, 9289887296, 7334966798, 7334966799, 7334966800, 7334966801, 7334966802, 7334966803, 7334966820, 7334966772, 7334966771, 11775496734, 7334966821, 9289940090, 7334966807, 7334966806, 7334966825, 7334966805, 7334966804, 7334966808, 7334966814], "tags": {"addr:city": "成都市", "addr:district": "锦江区", "addr:housenumber": "8号", "addr:province": "四川省", "addr:street": "新生路", "amenity": "university", "name": "四川音乐学院（锦江校区）", "name:zh": "四川音乐学院（锦江校区）", "short_name": "四川音乐学院"}}, {"type": "way", "id": 827798348, "center": {"lat": 30.6519068, "lon": 104.0522161}, "nodes": [5646863234, 5646863233, 7727965472, 7727965473, 7727965474, 7727965475, 5646863234], "tags": {"addr:city": "成都市", "addr:district": "武侯区", "addr:housenumber": "108", "addr:province": "四川省", "addr:street": "倒桑树街", "amenity": "hospital", "healthcare": "hospital", "name": "通用医疗三六三医院（武侯院区）", "name:en": "Genertec 363 Hospital", "name:zh": "通用医疗三六三医院（武侯院区）", "phone": "+86 28 6181 0363", "website": "https://www.363120.com/", "wikidata": "Q114450332", "wikipedia": "zh:通用医疗三六三医院"}}, {"type": "way", "id": 827798349, "center": {"lat": 30.6441559, "lon": 104.0773851}, "nodes": [7727965476, 7727965477, 7727965478, 7727965479, 7727965476], "tags": {"amenity": "hospital", "healthcare": "hospital", "name": "成都市第七人民医院"}}, {"type": "way", "id": 827798351, "center": {"lat": 30.6444538, "lon": 104.0492558}, "nodes": [7727965484, 7727998985, 7727998986, 7727998987, 7727998988, 7727998989, 7727998990, 7727965484], "tags": {"alt_name": "四川大学华西医院西藏成办分院", "amenity": "hospital", "full_name": "西藏自治区人民政府驻成都办事处医院", "healthcare": "hospital", "name": "西藏成办医院", "operator": "西藏自治区人民政府驻成都办事处", "operator:type": "government"}}, {"type": "way", "id": 827798354, "center": {"lat": 30.6361748, "lon": 104.0361413}, "nodes": [3203414190, 12449616154, 7727999002, 7727999003, 7727999005, 7727999006, 7727999007, 7727999008, 3203414190], "tags": {"amenity": "hospital", "healthcare": "hospital", "name": "武侯区人民医院", "name:en": "Wuhou District People's Hospital", "name:zh": "武侯区人民医院"}}, {"type": "way", "id": 837554748, "center": {"lat": 30.5665705, "lon": 104.0503933}, "nodes": [7817113702, 7817113703, 7817113721, 7817113722, 7817113702], "tags": {"amenity": "kindergarten", "name": "成都蒙彼利埃幼儿园"}}, {"type": "way", "id": 837554749, "center": {"lat": 30.5651818, "lon": 104.0501325}, "nodes": [7817113721, 7817113732, 4766964152, 4766964151, 7817113723, 7817113722, 7817113721], "tags": {"amenity": "school", "name": "成都石室天府中学(锦城湖校区)"}}, {"type": "way", "id": 852720211, "center": {"lat": 30.6381366, "lon": 104.0698658}, "nodes": [7954573910, 7954573911, 7954573920, 7954573921, 2930647327, 7954573910], "tags": {"amenity": "kindergarten", "name": "童心亲子园"}}, {"type": "way", "id": 908998353, "center": {"lat": 30.6533964, "lon": 104.0445323}, "nodes": [8440216240, 8440216280, 8440216281, 8440216282, 8440216283, 8440216284, 8440216242, 8440216241, 8440216240], "tags": {"amenity": "kindergarten", "name": "成都飞机设计研究所幼儿园"}}, {"type": "way", "id": 908998354, "center": {"lat": 30.6514069, "lon": 104.0512529}, "nodes": [8440216271, 8440216270, 8440216288, 8440216289, 8440216285, 8440216272, 8440216271], "tags": {"amenity": "kindergarten", "name": "成都军区空军第二幼儿园"}}, {"type": "way", "id": 957890614, "center": {"lat": 30.6575215, "lon": 104.0006394}, "nodes": [4773916776, 8863313486, 8863313487, 8863313488, 8863313489, 8863313490, 8863313491, 4773916774, 4773916776], "tags": {"amenity": "school", "name": "成都市沙堰小学"}}, {"type": "way", "id": 958215032, "center": {"lat": 30.547122, "lon": 104.0509129}, "nodes": [8866141374, 8866141375, 8866141376, 8866141377, 8866141378, 8866141379, 8866141374], "tags": {"amenity": "kindergarten", "name": "成都高新区万汇幼儿学府"}}, {"type": "way", "id": 958215085, "center": {"lat": 30.5379654, "lon": 104.0574275}, "nodes": [8866141543, 8866141547, 6243100382, 8866141546, 8866141543], "tags": {"amenity": "kindergarten", "name": "成都高新区灵均幼儿园"}}, {"type": "way", "id": 958215097, "center": {"lat": 30.5502886, "lon": 104.0277626}, "nodes": [8866141587, 8866141588, 8866141589, 8866141590, 8866141591, 8866141592, 8866141593, 8866141594, 8866141595, 8866141596, 8866141597, 8866141587], "tags": {"amenity": "school", "name": "成都市教育科学研究院附属中学"}}, {"type": "way", "id": 958215099, "center": {"lat": 30.5486552, "lon": 104.0307407}, "nodes": [8866141612, 8866141613, 8866141614, 8866141615, 8866141612], "tags": {"amenity": "police", "name": "桂溪派出所"}}, {"type": "way", "id": 958215111, "center": {"lat": 30.6024587, "lon": 104.0261242}, "nodes": [8866141716, 8866141717, 8866141718, 8866141733, 8866141719, 8866141735, 8866141731, 8866141720, 8866141721, 8866141722, 8866141723, 12614925059, 12614925060, 12614925063, 12614925062, 12614925061, 8866141716], "tags": {"amenity": "college", "name": "四川体育职业学院（太平寺校区）"}}, {"type": "way", "id": 958215113, "center": {"lat": 30.5992826, "lon": 104.0256653}, "nodes": [8866141731, 8866141730, 8866141732, 8866141737, 8866141718, 8866141733, 8866141734, 8866141735, 8866141731], "tags": {"amenity": "school", "name": "华艺外国语学校"}}, {"type": "way", "id": 960091351, "center": {"lat": 30.6162638, "lon": 103.9914487}, "nodes": [8883005161, 8883005162, 8883005166, 8883005167, 8883005168, 8883005169, 8883005170, 8883005171, 8883005172, 8883005173, 8883005174, 12645552598, 8883005175, 12645552599, 8883005161], "tags": {"amenity": "school", "name": "北京第二外国语学院成都附属中学（千秀校区）", "short_name": "北二外成都附中（千秀校区）"}}, {"type": "way", "id": 960091360, "center": {"lat": 30.6403229, "lon": 103.9595829}, "nodes": [8883006436, 8883006437, 10967877063, 10967877062, 10967877060, 8883006438, 8883006439, 8883006440, 8883006436], "tags": {"amenity": "school", "education": "school", "name": "成都礼仪职业中学"}}, {"type": "way", "id": 986911982, "center": {"lat": 30.661214, "lon": 103.9769524}, "nodes": [9122275648, 9122275649, 9122275654, 9122275640, 10670180082, 9122275641, 9122275642, 9122275643, 9122275648], "tags": {"amenity": "school", "name": "成都市读者小学"}}, {"type": "way", "id": 986911984, "center": {"lat": 30.6618688, "lon": 103.9765068}, "nodes": [9122275649, 9122275650, 9122275651, 9122275653, 9122275648, 9122275649], "tags": {"amenity": "kindergarten", "name": "成都市武侯区第二幼儿园"}}, {"type": "way", "id": 988651747, "center": {"lat": 30.6185239, "lon": 103.9773961}, "nodes": [9138160313, 9138160314, 9138160315, 9138160316, 9138160317, 9138160318, 9138160319, 9138160320, 9138160313], "tags": {"amenity": "school", "name": "四川大学附属实验小学（南区）"}}, {"type": "way", "id": 988651749, "center": {"lat": 30.6193451, "lon": 103.9781607}, "nodes": [9138160324, 9138160325, 9138160326, 9138160327, 9138160328, 9138160324], "tags": {"amenity": "kindergarten", "name": "成都市武侯区第十八幼儿园"}}, {"type": "way", "id": 988651752, "center": {"lat": 30.6149251, "lon": 103.9816737}, "nodes": [9138160338, 9138160340, 9138160341, 9138160342, 9138160343, 9138160338], "tags": {"amenity": "kindergarten", "name": "成都市武侯区第十五幼儿园（智达园区）"}}, {"type": "way", "id": 1006955907, "center": {"lat": 30.6404278, "lon": 104.0778858}, "nodes": [9289940090, 7334966821, 9289940092, 9289940093, 7334966807, 9289940090], "tags": {"amenity": "kindergarten"}}, {"type": "way", "id": 1011006521, "center": {"lat": 30.6235924, "lon": 103.9988885}, "nodes": [9327501371, 9327501364, 9327501365, 9327501366, 9327501367, 9327501368, 9327501369, 9327501370, 9327501371], "tags": {"amenity": "school", "education": "school", "name": "北京第二外国语学院成都附属中学"}}, {"type": "way", "id": 1011006522, "center": {"lat": 30.6248725, "lon": 103.9975448}, "nodes": [9327501372, 9327501378, 9327501373, 9327501374, 9327501375, 9327501376, 9327501377, 9327501372], "tags": {"amenity": "school", "education": "school", "name": "北京第二外国语学院成都附属小学"}}, {"type": "way", "id": 1011006523, "center": {"lat": 30.6250023, "lon": 103.9986423}, "nodes": [9327501378, 9327501379, 9327501380, 9327501381, 9327501372, 9327501378], "tags": {"amenity": "kindergarten", "name": "北京第二外国语学院成都附属幼儿园"}}, {"type": "way", "id": 1011006531, "center": {"lat": 30.6196753, "lon": 103.97894}, "nodes": [9138160330, 9138160335, 9327501439, 9138160327, 9138160328, 9138160330], "tags": {"amenity": "clinic", "healthcare": "clinic", "name": "成都市武侯区簇锦社区卫生服务中心"}}, {"type": "way", "id": 1025729648, "center": {"lat": 30.6123728, "lon": 104.0503323}, "nodes": [9457121712, 9457121713, 9457121714, 9457121716, 9458129533, 9457121712], "tags": {"amenity": "kindergarten", "name": "紫薇幼儿园"}}, {"type": "way", "id": 1033678199, "center": {"lat": 30.6231468, "lon": 104.0678591}, "nodes": [9523139132, 9523139133, 9523139134, 9523139135, 10721098983, 9523139137, 10721098984, 9523139139, 9523139132], "tags": {"amenity": "hospital", "building:levels": "6", "healthcare": "hospital", "name": "棕南医院"}}, {"type": "way", "id": 1039086411, "center": {"lat": 30.6357635, "lon": 104.0145213}, "nodes": [9568890266, 9568890267, 9568890268, 9568890269, 9568890270, 9568890271, 9568890266], "tags": {"amenity": "school", "name": "成都市明远书院学校"}}, {"type": "way", "id": 1053207060, "center": {"lat": 30.5977094, "lon": 103.9927111}, "nodes": [9678901343, 9678901344, 9678901345, 9678901346, 9678901347, 10177891143, 9678901348, 10177891144, 9678901340, 9678901339, 9678901350, 9678901343], "tags": {"amenity": "school", "education": "school", "name": "成都市武侯实验中学"}}, {"type": "way", "id": 1061062165, "center": {"lat": 30.6137691, "lon": 103.9626503}, "nodes": [9749031427, 9749031428, 9749031429, 9749031430, 9749031431, 9749031432, 9749031433, 9749031434, 9749031435, 9749031427], "tags": {"amenity": "school", "name": "四川大学附属中学（新城分校）"}}, {"type": "way", "id": 1064361490, "center": {"lat": 30.6031352, "lon": 104.0727998}, "nodes": [9775190590, 9775190591, 9775190592, 9775190598, 9775190593, 9775190594, 9775190595, 9775190596, 9775190590], "tags": {"amenity": "kindergarten", "name": "天仁幼儿园"}}, {"type": "way", "id": 1064547576, "center": {"lat": 30.6199511, "lon": 103.9848387}, "nodes": [9776813543, 9776813544, 9776813545, 9776813546, 9776813547, 10235609999, 9776813548, 9776813543], "tags": {"amenity": "school", "name": "成都市武顺街小学"}}, {"type": "way", "id": 1064792448, "center": {"lat": 30.6062685, "lon": 103.9672614}, "nodes": [9778836934, 9778836935, 10162082776, 9778836936, 9778836937, 9778836938, 9778836939, 9778836940, 9778836941, 9778836934], "tags": {"amenity": "school", "name": "成都市金花中学"}}, {"type": "way", "id": 1075251670, "center": {"lat": 30.6212793, "lon": 104.0276732}, "nodes": [9861577395, 9861577396, 9861577397, 9861577398, 9861577399, 9861577395], "tags": {"amenity": "police", "name": "成都市公安局轨道公交分局"}}, {"type": "way", "id": 1082550944, "center": {"lat": 30.6066699, "lon": 103.9928296}, "nodes": [9921234966, 9921234967, 10233305826, 9921234968, 9921234969, 9921234970, 9921234971, 9921234966], "tags": {"amenity": "hospital", "healthcare": "hospital", "name": "武侯区第三人民医院"}}, {"type": "way", "id": 1082810416, "center": {"lat": 30.6390434, "lon": 103.9853745}, "nodes": [9923792451, 9923792452, 9923792453, 9923792454, 9923792455, 9923792451], "tags": {"amenity": "school", "name": "成都市武侯科技园小学"}}, {"type": "way", "id": 1082810418, "center": {"lat": 30.6400486, "lon": 103.9749605}, "nodes": [9331912794, 9923792461, 9923792462, 9331912796, 9331912795, 9331912794], "tags": {"amenity": "kindergarten", "name": "成都市第二十二幼儿园"}}, {"type": "way", "id": 1082855336, "center": {"lat": 30.639888, "lon": 103.9684454}, "nodes": [9924115073, 9924115074, 9924115075, 9924115076, 9924115077, 9924115078, 9924115079, 9924115080, 9924115081, 9924115073], "tags": {"amenity": "school", "education": "school", "name": "成都七中墨池书院中学"}}, {"type": "way", "id": 1082855337, "center": {"lat": 30.6397361, "lon": 103.9705054}, "nodes": [9924115082, 9924115083, 9924115084, 9924115085, 9924115086, 9924115082], "tags": {"amenity": "school", "education": "school", "name": "四川大学附属实验小学明德学校"}}, {"type": "way", "id": 1082855341, "center": {"lat": 30.6438735, "lon": 103.9687451}, "nodes": [9924115106, 9924115107, 9924115108, 9924115109, 9924115106], "tags": {"amenity": "kindergarten", "name": "成都市武侯区第四十三幼儿园"}}, {"type": "way", "id": 1082855346, "center": {"lat": 30.6484367, "lon": 103.9692596}, "nodes": [9924118529, 9924118530, 9924118531, 9924118532, 9924118533, 9924118529], "tags": {"amenity": "school", "name": "成都市行知实验小学"}}, {"type": "way", "id": 1082855349, "center": {"lat": 30.6505971, "lon": 103.9701044}, "nodes": [9924118550, 9924118551, 9924118552, 9924118553, 9924118554, 9924118550], "tags": {"amenity": "kindergarten", "name": "成都市西蜀实验幼儿园"}}, {"type": "way", "id": 1089046937, "center": {"lat": 30.6526606, "lon": 104.0083475}, "nodes": [9976832970, 9976832978, 9976832979, 9976832965, 9976832971, 9976832970], "tags": {"amenity": "kindergarten", "name": "成都市武侯区融汇幼儿园"}}, {"type": "way", "id": 1089046944, "center": {"lat": 30.6541754, "lon": 104.0094158}, "nodes": [9976832952, 9976833010, 9976833011, 9976833015, 9976833012, 9976833013, 9976837419, 9976833014, 9976832952], "tags": {"amenity": "kindergarten", "name": "龙腾幼稚园"}}, {"type": "way", "id": 1089046949, "center": {"lat": 30.6511863, "lon": 104.0068718}, "nodes": [9976837439, 9976837433, 9976837434, 9976837441, 9976837440, 9976837439], "tags": {"amenity": "hospital", "healthcare": "hospital", "name": "成都武侯三松德森医院"}}, {"type": "way", "id": 1089046950, "center": {"lat": 30.6514478, "lon": 104.0082375}, "nodes": [9976837430, 9976837442, 9976837443, 9976837444, 9976837445, 9976837437, 9976837427, 9976837428, 9976837436, 9976837435, 9976837429, 9976837430], "tags": {"amenity": "hospital", "healthcare": "hospital", "name": "成都市疾病预防控制中心"}}, {"type": "way", "id": 1089046960, "center": {"lat": 30.6529036, "lon": 104.0115139}, "nodes": [9976837494, 9976837500, 9976837501, 9976837502, 9976837503, 9976837507, 9976837495, 9976837494], "tags": {"amenity": "hospital", "healthcare": "hospital", "name": "成都武侯尼斯铂尚医疗美容门诊部"}}, {"type": "way", "id": 1089046973, "center": {"lat": 30.6525825, "lon": 104.0203182}, "nodes": [9976837578, 9976837579, 9976837577, 9976837580, 9976837581, 9976837578], "tags": {"amenity": "hospital", "healthcare": "hospital", "name": "四川奥斯迪康骨医院"}}, {"type": "way", "id": 1089046982, "center": {"lat": 30.652642, "lon": 104.0165713}, "nodes": [9976837602, 9976837613, 9976837603, 9976837604, 9976837605, 9976837606, 9976837607, 9976837602], "tags": {"amenity": "school", "name": "四川大学附属实验小学西区"}}, {"type": "way", "id": 1089046986, "center": {"lat": 30.6516334, "lon": 104.0189319}, "nodes": [9976837622, 9976837626, 9976837627, 9976837628, 9976837619, 9976837620, 9976837621, 9976837622], "tags": {"amenity": "police", "name": "成都市国家安全局"}}, {"type": "way", "id": 1089046996, "center": {"lat": 30.6494846, "lon": 104.0072545}, "nodes": [9976837695, 9976837696, 9976837693, 9976837694, 9976837695], "tags": {"amenity": "kindergarten", "name": "凯星幼儿园（国际园）"}}, {"type": "way", "id": 1089046997, "center": {"lat": 30.6500102, "lon": 104.0078005}, "nodes": [9976837696, 9976837697, 9976837698, 9976837699, 9976837703, 9976837700, 9976837695, 9976837696], "tags": {"amenity": "school", "name": "成都市龙祥路小学"}}, {"type": "way", "id": 1089047003, "center": {"lat": 30.6460227, "lon": 104.0131306}, "nodes": [9976837739, 9976837740, 9976837741, 9976837738, 9976837739], "tags": {"amenity": "police", "name": "红牌楼派出所"}}, {"type": "way", "id": 1089047004, "center": {"lat": 30.6460694, "lon": 104.0134737}, "nodes": [9976837735, 9976837742, 9976837743, 9976837740, 9976837739, 9976837737, 9976837736, 9976837735], "tags": {"amenity": "kindergarten", "name": "迪赛尔博幼稚园"}}, {"type": "way", "id": 1089047005, "center": {"lat": 30.6456247, "lon": 104.0132883}, "nodes": [9976837744, 9976837745, 9976837746, 9976837747, 9976837732, 9976837748, 9976837744], "tags": {"amenity": "kindergarten", "name": "成都市武侯区第二十六幼儿园"}}, {"type": "way", "id": 1089047012, "center": {"lat": 30.646878, "lon": 104.0175743}, "nodes": [9976837784, 9976837788, 9976837789, 9976837790, 9976837791, 9976837786, 9976837787, 9976837784], "tags": {"amenity": "school", "name": "成都市棕北中学西区（小学部）"}}, {"type": "way", "id": 1089047022, "center": {"lat": 30.6444935, "lon": 104.0174393}, "nodes": [9976837838, 9976837839, 9976837840, 9976837841, 9976837842, 9976837843, 9976837847, 9976837844, 9976837845, 9976837846, 9976837838], "tags": {"amenity": "school", "name": "棕北中学西区实验学校"}}, {"type": "way", "id": 1089047032, "center": {"lat": 30.6428591, "lon": 104.0147875},