{"elements": [{"type": "node", "id": 3076389333, "lat": 23.1292484, "lon": 113.3366981, "tags": {"amenity": "hospital", "healthcare": "hospital", "name": "广州华美美容医院", "name:zh": "广州华美美容医院"}}, {"type": "node", "id": 3076389334, "lat": 23.1292764, "lon": 113.3363149, "tags": {"amenity": "hospital", "healthcare": "hospital", "name": "广东省结核病控制中心", "name:zh": "广东省结核病控制中心"}}, {"type": "node", "id": 4988262836, "lat": 23.1546918, "lon": 113.3199704, "tags": {"amenity": "police", "name": "police box"}}, {"type": "node", "id": 5110613815, "lat": 23.1157728, "lon": 113.3200733, "tags": {"amenity": "police"}}, {"type": "node", "id": 5110634711, "lat": 23.1190932, "lon": 113.3580682, "tags": {"amenity": "school", "education": "school", "name": "员村新蕾学校"}}, {"type": "node", "id": 5262102657, "lat": 23.1254868, "lon": 113.3989687, "tags": {"amenity": "school", "education": "school", "name": "东圃中学", "name:zh": "东圃中学"}}, {"type": "node", "id": 5291766428, "lat": 23.1991087, "lon": 113.3636513, "tags": {"amenity": "hospital", "healthcare": "hospital", "name": "龙洞人民医院"}}, {"type": "node", "id": 5408803924, "lat": 23.1295108, "lon": 113.3382209, "tags": {"amenity": "hospital", "healthcare": "hospital", "name": "广州长安医院", "name:zh": "广州长安医院"}}, {"type": "node", "id": 5416148319, "lat": 23.1321034, "lon": 113.3130707, "tags": {"amenity": "hospital", "healthcare": "hospital", "name": "广州市第十二人民医院", "name:zh": "广州市第十二人民医院"}}, {"type": "node", "id": 5517954756, "lat": 23.1469336, "lon": 113.3731563, "tags": {"amenity": "hospital", "healthcare": "hospital", "name": "华侨医院桥康院区", "name:zh": "华侨医院桥康院区"}}, {"type": "node", "id": 5518020674, "lat": 23.1191945, "lon": 113.3683193, "tags": {"addr:housenumber": "13", "addr:street": "科韵中路", "amenity": "college", "education": "college", "name": "广州市广播电视大学(天河区分校)", "name:en": "Guangzhou Radio & TV University (Tianhe District Branch)", "name:zh": "广州市广播电视大学(天河区分校)"}}, {"type": "node", "id": 5536991185, "lat": 23.1546181, "lon": 113.3298919, "tags": {"amenity": "kindergarten", "education": "kindergarten", "name": "丽晴轩幼儿园"}}, {"type": "node", "id": 5714743303, "lat": 23.132716, "lon": 113.3287072, "tags": {"amenity": "hospital", "healthcare": "hospital", "name": "广东省中医院天河门诊部", "name:zh": "广东省中医院天河门诊部"}}, {"type": "node", "id": 6168500158, "lat": 23.1404311, "lon": 113.3376077, "tags": {"amenity": "school", "check_date": "2026-01-21", "name": "广州市团校"}}, {"type": "node", "id": 6537040320, "lat": 23.1299088, "lon": 113.3519943, "tags": {"amenity": "police", "name": "天园派出所", "wheelchair": "yes"}}, {"type": "node", "id": 6537040328, "lat": 23.1316932, "lon": 113.3532905, "tags": {"amenity": "kindergarten", "check_date": "2024-03-16", "education": "kindergarten", "name": "东方熹园幼儿园", "operator:type": "public", "wheelchair": "yes"}}, {"type": "node", "id": 6537064608, "lat": 23.1329352, "lon": 113.3554239, "tags": {"amenity": "kindergarten", "check_date": "2024-03-16", "education": "kindergarten", "name": "天晖幼儿园", "operator:type": "public", "wheelchair": "yes"}}, {"type": "node", "id": 6537161267, "lat": 23.1399376, "lon": 113.3699509, "tags": {"amenity": "police"}}, {"type": "node", "id": 6580094118, "lat": 23.1520997, "lon": 113.2958137, "tags": {"amenity": "college", "education": "college", "name": "广州市幼儿师范学校"}}, {"type": "node", "id": 6592687652, "lat": 23.1498404, "lon": 113.3072519, "tags": {"amenity": "kindergarten", "education": "kindergarten"}}, {"type": "node", "id": 6592687668, "lat": 23.149605, "lon": 113.3044897, "tags": {"amenity": "police"}}, {"type": "node", "id": 6906057367, "lat": 23.1216716, "lon": 113.3105, "tags": {"amenity": "clinic", "healthcare": "clinic", "name": "嘉茜医疗门诊部"}}, {"type": "node", "id": 7551900498, "lat": 23.1739394, "lon": 113.3392368, "tags": {"amenity": "police", "name": "天河客运站派出所"}}, {"type": "node", "id": 7702770361, "lat": 23.1276293, "lon": 113.3852466, "tags": {"amenity": "driving_school", "education": "driving_school"}}, {"type": "node", "id": 7995241925, "lat": 23.1309763, "lon": 113.3637059, "tags": {"amenity": "police", "name": "保安部"}}, {"type": "node", "id": 8008259700, "lat": 23.1616634, "lon": 113.3449247, "tags": {"amenity": "college", "name": "华南农业大学海洋学院", "name:en": "SCAU College of Marine Sciences", "website": "https://hy.scau.edu.cn/"}}, {"type": "node", "id": 8067848322, "lat": 23.15869, "lon": 113.3506592, "tags": {"addr:city": "广州市", "addr:district": "天河区", "addr:province": "广东省", "addr:street": "华农珠江路", "amenity": "clinic", "emergency": "yes", "emergency:phone": "+86 20 8528 0120", "healthcare": "clinic", "healthcare:speciality": "dermatology;gynaecology;surgery;vaccination;general;paediatrics;radiology;psychiatry;laboratory;emergency;stomatology;otolaryngology;ophthalmology;traditional_chinese_medicine;physiatry;acupuncture", "name": "华南农业大学校医院", "opening_hours": "24/7 \"emergency\"; Mo-Fr 8:00-12:00,14:30-17:30; Sa-Su 8:00-11:30,15:00-17:30; SH 8:00-11:30,15:00-17:30;", "phone": "+86 20 8528 0348"}}, {"type": "node", "id": 8077680610, "lat": 23.1224506, "lon": 113.3646484, "tags": {"amenity": "school", "education": "school", "name": "启慧学校"}}, {"type": "node", "id": 8148205756, "lat": 23.1596839, "lon": 113.3470238, "tags": {"amenity": "college", "name": "华南农业大学公共管理学院", "name:en": "SCAU College of Public Management", "website": "https://ggglxy.scau.edu.cn/"}}, {"type": "node", "id": 8637331504, "lat": 23.1700216, "lon": 113.3525979, "tags": {"addr:city": "广州市", "addr:district": "天河区", "addr:housenumber": "289", "addr:province": "广东省", "addr:street": "长兴路", "amenity": "police", "name": "长兴派出所", "phone": "+86 20 8723 9696"}}, {"type": "node", "id": 8637495240, "lat": 23.1714556, "lon": 113.3521624, "tags": {"amenity": "clinic", "healthcare": "clinic", "name": "广州市天河去长兴人民医院"}}, {"type": "node", "id": 8637495241, "lat": 23.1714535, "lon": 113.3523115, "tags": {"amenity": "clinic", "healthcare": "clinic", "name": "天河区长兴街社区卫生服务中心", "name:en": "Changxing Community Health Service Center for Tianhe District"}}, {"type": "node", "id": 8915416765, "lat": 23.1594382, "lon": 113.3433568, "tags": {"addr:city": "广州市", "addr:district": "天河区", "addr:province": "广东省", "amenity": "college", "internet_access": "yes", "internet_access:fee": "customers", "internet_access:ssid": "SCAUNET", "name": "马克思主义学院", "name:en": "College of Marxism", "phone": "+86 20 8528 6459", "website": "https://mkszyxy.scau.edu.cn/"}}, {"type": "node", "id": 8941899261, "lat": 23.1539868, "lon": 113.3636631, "tags": {"amenity": "college", "education": "college", "name": "华南农业大学 创新创业学院", "name:en": "College of Innovation and Entrepreneurship SCAU", "website": "https://cxcyxy.scau.edu.cn/"}}, {"type": "node", "id": 9121970925, "lat": 23.1487375, "lon": 113.3226669, "tags": {"amenity": "police", "name": "林和派出所"}}, {"type": "node", "id": 9185555544, "lat": 23.1484079, "lon": 113.3564476, "tags": {"amenity": "college", "education": "college", "name": "广东省科贸职业学院(五山校区)"}}, {"type": "node", "id": 9292047757, "lat": 23.1250889, "lon": 113.3154852, "tags": {"amenity": "police", "name": "广州市公安局天河分局冼村派出所"}}, {"type": "node", "id": 9731305775, "lat": 23.1371028, "lon": 113.3457389, "tags": {"amenity": "driving_school", "education": "driving_school"}}, {"type": "node", "id": 10002545770, "lat": 23.1311305, "lon": 113.3254799, "tags": {"amenity": "kindergarten", "education": "kindergarten"}}, {"type": "node", "id": 10002545784, "lat": 23.132253, "lon": 113.3270651, "tags": {"amenity": "kindergarten", "education": "kindergarten"}}, {"type": "node", "id": 10106523898, "lat": 23.1311666, "lon": 113.3196652, "tags": {"amenity": "kindergarten", "education": "kindergarten", "name": "天河区儿童福利会幼儿园"}}, {"type": "node", "id": 10106595878, "lat": 23.131843, "lon": 113.3213368, "tags": {"amenity": "police", "name": "天河南派出所"}}, {"type": "node", "id": 10904904528, "lat": 23.1171532, "lon": 113.3327879, "tags": {"amenity": "police"}}, {"type": "node", "id": 11032417055, "lat": 23.1154558, "lon": 113.3398227, "tags": {"amenity": "kindergarten", "education": "kindergarten", "name": "汇悦天启幼儿园"}}, {"type": "node", "id": 11032417060, "lat": 23.1185593, "lon": 113.3418866, "tags": {"amenity": "kindergarten", "education": "kindergarten", "name": "金穗幼儿园花城园区"}}, {"type": "node", "id": 11032482824, "lat": 23.1211174, "lon": 113.3518336, "tags": {"amenity": "kindergarten", "education": "kindergarten", "name": "旭日雅苑幼儿园"}}, {"type": "node", "id": 11059863394, "lat": 23.1477934, "lon": 113.3368488, "tags": {"amenity": "hospital", "healthcare": "hospital", "healthcare:speciality": "traditional_chinese_medicine", "name": "嘉禧中医院"}}, {"type": "node", "id": 11059913554, "lat": 23.1425147, "lon": 113.3598232, "tags": {"amenity": "kindergarten", "education": "kindergarten", "name": "合美华景幼儿园"}}, {"type": "node", "id": 11097239714, "lat": 23.1415503, "lon": 113.3610487, "tags": {"amenity": "kindergarten", "education": "kindergarten", "name": "卉华幼儿园"}}, {"type": "node", "id": 11295637003, "lat": 23.2199648, "lon": 113.3565907, "tags": {"amenity": "kindergarten", "name": "凡恩格林森林幼儿园"}}, {"type": "node", "id": 11738349218, "lat": 23.1327966, "lon": 113.3554287, "tags": {"alt_name": "社区诊所", "amenity": "clinic", "healthcare": "clinic", "kids_area": "yes", "name": "天园街东晖社区卫生服务站"}}, {"type": "node", "id": 11795174407, "lat": 23.1525411, "lon": 113.3005651, "tags": {"amenity": "clinic", "healthcare": "clinic", "name": "沙河街社区卫生服务中心"}}, {"type": "node", "id": 11986922578, "lat": 23.1419895, "lon": 113.331629, "tags": {"amenity": "kindergarten", "education": "kindergarten", "name": "帝景苑幼儿园"}}, {"type": "node", "id": 12164882674, "lat": 23.1546004, "lon": 113.3471948, "tags": {"amenity": "hospital", "healthcare": "hospital", "name": "五山社区医院"}}, {"type": "node", "id": 12916526050, "lat": 23.1198088, "lon": 113.3249842, "tags": {"amenity": "kindergarten", "education": "kindergarten", "name": "启赋幼儿园"}}, {"type": "node", "id": 13508703556, "lat": 23.1399996, "lon": 113.3471463, "tags": {"amenity": "college", "education": "college", "name": "华南师范大学体育系"}}, {"type": "node", "id": 13508706531, "lat": 23.1420589, "lon": 113.3413183, "tags": {"amenity": "college", "education": "college", "name": "马克思主义学院"}}, {"type": "node", "id": 13508706533, "lat": 23.1422848, "lon": 113.341669, "tags": {"amenity": "college", "education": "college", "name": "哲学与社会发展学院"}}, {"type": "node", "id": 13508706534, "lat": 23.1422642, "lon": 113.3420071, "tags": {"amenity": "college", "education": "college", "name": "外国语言文化学院"}}, {"type": "node", "id": 13565772323, "lat": 23.1621033, "lon": 113.3224876, "tags": {"amenity": "hospital", "check_date": "2026-01-31", "healthcare": "hospital", "name": "六一儿童医院"}}, {"type": "way", "id": 75561649, "center": {"lat": 23.1422807, "lon": 113.3259554}, "nodes": [892270189, 892270192, 892270196, 8930761231, 8930761230, 8930761232, 8930761229, 892270201, 8930761228, 892270189], "tags": {"amenity": "school", "education": "school", "name": "华阳小学（天河东校区）", "name:en": "Huayang Primary School", "name:zh": "华阳小学（天河东校区）"}}, {"type": "way", "id": 166881414, "center": {"lat": 23.1419743, "lon": 113.3498053}, "nodes": [1783002668, 1783002657, 1783002663, 1783002661, 1783002668], "tags": {"amenity": "hospital", "healthcare": "hospital", "name": "华南师范大学校医院", "name:en": "Hospital of South China Normal University", "name:zh": "华南师范大学校医院"}}, {"type": "way", "id": 206226293, "center": {"lat": 23.1220091, "lon": 113.3269973}, "nodes": [2162289145, 2162289143, 5036052346, 5036052347, 2507462206, 2507462211, 2507462210, 2507462207, 2162288434, 2162289145], "tags": {"amenity": "school", "education": "school", "name": "广州市天河中学(花城校区)", "name:en": "Guangzhou Tianhe Middle School (Huacheng Campus)", "name:zh": "广州市天河中学(花城校区)"}}, {"type": "way", "id": 206226405, "center": {"lat": 23.1220506, "lon": 113.3258655}, "nodes": [2162289144, 2162289142, 5036052348, 5036052349, 2162289143, 2162289145, 2162289144], "tags": {"amenity": "school", "education": "school", "name": "体育东路小学兴国学校", "name:zh": "体育东路小学兴国学校"}}, {"type": "way", "id": 215566972, "center": {"lat": 23.1151537, "lon": 113.4128489}, "nodes": [2250319274, 2250319271, 2250319272, 2250319275, 2250319274], "tags": {"amenity": "school", "education": "school", "name": "盈彩美居小学", "name:en": "Yingcaimeiju Primary School", "name:zh": "盈彩美居小学"}}, {"type": "way", "id": 227675183, "center": {"lat": 23.1298058, "lon": 113.3675529}, "nodes": [2363220494, 2363220495, 2363220496, 2363220497, 2363220494], "tags": {"amenity": "kindergarten", "education": "kindergarten", "name": "吉米英文幼儿园"}}, {"type": "way", "id": 240498650, "center": {"lat": 23.1339818, "lon": 113.3663011}, "nodes": [2482282025, 3528605995, 3528634893, 3528635094, 5205639497, 5205639496, 2482282027, 2482282028, 2482282030, 3530939263, 2482282031, 3528634493, 3528605597, 2482282033, 3528634693, 3528606096, 2482282034, 2482282036, 2482282025], "tags": {"addr:city": "广州", "addr:street": "中山大道", "amenity": "college", "education": "college", "name": "广东技术师范学院", "name:en": "Guangdong Polytechnic Normal University", "name:zh": "广东技术师范学院"}}, {"type": "way", "id": 291722349, "center": {"lat": 23.1403975, "lon": 113.3393352}, "nodes": [2952089306, 4285897718, 5144470213, 5144470211, 5144470210, 4974559411, 4285897581, 5140780731, 4285897560, 4285897552, 4285897550, 5137388837, 4881827410, 4881827409, 4881827408, 2952089310, 4881827405, 8788421588, 3547375076, 3547375066, 3547375548, 3547375054, 2952089308, 3975463760, 5140780737, 5140780735, 2952089306], "tags": {"addr:city": "广州市", "addr:housenumber": "1", "addr:postcode": "510630", "addr:street": "中山大道西", "amenity": "school", "education": "school", "name": "华南师范大学附属中学", "name:en": "Affiliated High School of South China Normal University", "name:zh": "华南师范大学附属中学", "wikidata": "Q4688917", "wikipedia": "en:Affiliated High School of South China Normal University"}}, {"type": "way", "id": 299684380, "center": {"lat": 23.1198191, "lon": 113.3136606}, "nodes": [3037267590, 3036592241, 3037267589, 3037267591, 5021418975, 3037267590], "tags": {"amenity": "school", "barrier": "wall", "education": "school", "name": "天河第一小学(华利校区)", "name:en": "Tianhe No.1 Primary School (Huali Campus)", "name:zh": "天河第一小学(华利校区)"}}, {"type": "way", "id": 360054761, "center": {"lat": 23.1547288, "lon": 113.3453452}, "nodes": [3646572460, 3229776599, 3229776608, 3646573499, 3646573500, 3646573501, 3646573502, 3646573503, 3646573504, 3646573505, 3646572460], "tags": {"amenity": "kindergarten", "education": "kindergarten", "name": "华南理工大学幼儿园", "name:zh": "华南理工大学幼儿园"}}, {"type": "way", "id": 360056995, "center": {"lat": 23.133503, "lon": 113.3418832}, "nodes": [4555030759, 5228289918, 5228289917, 5228289916, 5228289915, 5228289914, 6168500159, 5228289912, 5228289910, 5228289909, 5228289908, 5228289907, 5228289906, 5228289905, 5228289904, 5228289903, 5228289902, 5228289901, 5228289900, 5228289899, 5228289898, 5228289897, 5228289896, 5228289895, 5228289894, 5228289893, 5228289892, 5228289891, 5228289890, 5228289889, 5228289888, 5228289887, 5228289885, 5228289883, 5228289882, 5228289881, 5228289880, 5228289879, 5228289878, 3646586063, 5228289877, 5221567691, 3646586064, 3646586065, 3646586067, 4076156870, 5195840993, 5221567563, 5221567488, 3646586068, 3646586069, 5228290125, 5228290126, 5228290127, 6417952193, 5228290124, 3646586070, 3646586077, 3646586076, 3646586075, 3646586071, 3646586072, 5221567755, 3646586073, 5228290122, 5228290121, 5228289920, 3646586074, 4281408489, 4555030759], "tags": {"addr:city": "广州市", "addr:district": "天河区", "addr:housenumber": "601", "addr:province": "广东省", "addr:street": "黄埔大道西", "amenity": "university", "education": "university", "internet_access": "wlan", "internet_access:fee": "yes", "internet_access:ssid": "JNU", "name": "暨南大学(石牌校区)", "name:en": "Jinan University (Shipai Campus)", "name:vi": "Đại học Kị Nam", "name:zh": "暨南大学(石牌校区)", "website": "https://www.jnu.edu.cn/"}}, {"type": "way", "id": 360746329, "center": {"lat": 23.1485991, "lon": 113.3394818}, "nodes": [3653008296, 3653008297, 3653008298, 3653008307, 3653008299, 3653008300, 3653008301, 3653008302, 3653008303, 3653008304, 3653008305, 3653008306, 3653008296], "tags": {"amenity": "police", "building": "yes", "name": "广州市公安局天河分局", "name:zh": "广州市公安局天河分局"}}, {"type": "way", "id": 360748409, "center": {"lat": 23.165887, "lon": 113.32713}, "nodes": [3653028841, 6125746817, 6125746816, 6125746815, 3653028843, 3653028844, 3653028845, 3653028846, 3653028847, 3653028848, 3653028841], "tags": {"alt_name": "武警广东总队医院", "amenity": "hospital", "healthcare": "hospital", "name": "武警医院", "name:en": "WuJing Hospital"}}, {"type": "way", "id": 365748177, "center": {"lat": 23.14496, "lon": 113.3575837}, "nodes": [3697597177, 3697597178, 3697597179, 3697597180, 3697597177], "tags": {"amenity": "school", "check_date": "2024-03-16", "education": "school", "name": "华景小学北校区", "name:en": "Huajing Primary School (North Campus)", "name:zh": "华景小学北校区"}}, {"type": "way", "id": 368454085, "center": {"lat": 23.1693959, "lon": 113.3415818}, "nodes": [8755217108, 3722929347, 3722929349, 3722929350, 8755217109, 3722929351, 3722929352, 3722929353, 3722929354, 8755217108], "tags": {"addr:city": "广州市", "addr:district": "天河区", "addr:housenumber": "173", "addr:province": "广东省", "addr:street": "长福路", "amenity": "college", "barrier": "wall", "name": "广州市轻工职业学校", "name:en": "Guangzhou Vocational School Of Light Industy"}}, {"type": "way", "id": 368454086, "center": {"lat": 23.1701024, "lon": 113.3401526}, "nodes": [3722929355, 5206553465, 5206553466, 5206553467, 3722929356, 8755217116, 3722929357, 8755217112, 8755258917, 5206553462, 5206553464, 3722929355], "tags": {"addr:city": "广州市", "addr:district": "天河区", "addr:housenumber": "167", "addr:province": "广东省", "addr:street": "长福路", "amenity": "college", "barrier": "wall", "education": "college", "name": "广东省城市建设技师学院(长福校区)", "name:en": "City Construction Technicians College of Guangdong Province (Changfu Campus)", "name:zh": "广东省城市建设技师学院(长福校区)"}}, {"type": "way", "id": 368455649, "center": {"lat": 23.1796959, "lon": 113.3411217}, "nodes": [3722950687, 6906112747, 3722950721, 3722950722, 3722950723, 3724064338, 3722954525, 9212139038, 9212139037, 9212139036, 3722954526, 3722950710, 3722950687], "tags": {"amenity": "school", "barrier": "wall", "education": "school", "name": "广州天省实验学校", "name:en": "Guangzhou Tianxing Experimental School", "name:zh": "广州天省实验学校", "old_name": "广东实验中学附属天河学校"}}, {"type": "way", "id": 368546118, "center": {"lat": 23.1782914, "lon": 113.3400561}, "nodes": [3722954525, 3724064338, 3724064339, 3724064340, 9212139035, 3722954525], "tags": {"amenity": "school", "barrier": "wall", "education": "school", "name": "广州市天河区元岗小学", "name:en": "Guangzhou Tianhe Yuangang Primary School", "name:zh": "广州市天河区元岗小学"}}, {"type": "way", "id": 370062619, "center": {"lat": 23.1674888, "lon": 113.4122081}, "nodes": [3737854475, 3737854476, 3737854477, 3737854478, 3737854479, 3737854480, 3737854481, 3737854482, 3737854483, 3737854484, 3737854485, 3737854486, 3737854487, 3737854488, 3737854489, 3737854475], "tags": {"amenity": "school", "education": "school", "name": "华外同文外国语学校", "name:en": "Huawai Tongwen Foreign Language School", "old_name": "华南师范大学附属外国语学校"}}, {"type": "way", "id": 370062622, "center": {"lat": 23.1711583, "lon": 113.4152116}, "nodes": [3737854495, 3737854496, 3737854497, 11220516714, 11220516713, 3737854498, 3737854499, 3737854500, 3737854501, 3737854503, 3737854504, 3737854505, 3737854506, 11220516711, 11220516712, 11220516710, 11220516709, 11220516708, 11220516707, 3737854507, 11220516706, 11220516705, 3105332008, 3105332028, 11220516702, 4058107836, 11220516701, 3737854508, 3737854509, 3737854510, 3737854495], "tags": {"addr:city": "广州市", "addr:district": "黄埔区", "addr:housenumber": "492", "addr:postcode": "510663", "addr:province": "广东省", "addr:street": "大观中路", "amenity": "college", "branch": "广州校区", "name": "广东岭南职业技术学校广州校区", "name:en": "Guangdong Lingnan Institute of Technology", "name:zh": "广东岭南职业技术学校广州校区", "phone": "+86 20 22305733, +86 20 22305555", "website": "https://lnc.edu.cn/", "wikidata": "Q32180588", "wikipedia": "zh-yue:廣東嶺南職業技術學院"}}, {"type": "way", "id": 370885264, "center": {"lat": 23.1540394, "lon": 113.3262175}, "nodes": [3745553580, 5572535695, 3745553581, 5536958909, 3745553582, 3745553583, 5536958907, 5536958908, 3745553584, 3745553585, 5586158373, 5572535679, 5074862781, 3745553587, 3745553588, 3745553589, 3745553590, 5536958904, 5536958912, 5536958913, 5536958906, 5536958905, 5536958910, 3745553580], "tags": {"amenity": "university", "education": "university", "name": "暨南大学华文学院", "name:en": "College of Chinese Language and Culture, Jinan University", "name:zh": "暨南大学华文学院"}}, {"type": "way", "id": 370947228, "center": {"lat": 23.1418227, "lon": 113.3471651}, "nodes": [5144470201, 11057981072, 3746056352, 11057981073, 3746056353, 3746056354, 3746056355, 3746056356, 3746056357, 3746056358, 3746056359, 4285897722, 4285897725, 4285897726, 4285897727, 3746056361, 4285897731, 4285897733, 4285897732, 4285897730, 4285897729, 4285897728, 4285897724, 4285897723, 9839059502, 4285897721, 9839059500, 9839059501, 3746056362, 3746056363, 3746056364, 3746056365, 3746056366, 3746056367, 3746056368, 5291735818, 3746056369, 3746056370, 4285897537, 3746056371, 4285897536, 3349495309, 3746056373, 4285897538, 4285897539, 4285897542, 4285897540, 3746056374, 4881827409, 4881827410, 11057993232, 11057993230, 4285897550, 4285897552, 4285897560, 5140780731, 4285897581, 4974559411, 5144470201], "tags": {"amenity": "university", "education": "university", "name": "华南师范大学(石牌校区)", "name:en": "South China Normal University (Shipai Campus)", "name:vi": "Đại học Sư phạm Hoa Nam", "name:zh": "华南师范大学(石牌校区)"}}, {"type": "way", "id": 375104549, "center": {"lat": 23.1368541, "lon": 113.3773135}, "nodes": [3784942039, 3784942047, 3784344057, 3784942040, 3784942041, 3784942042, 3784942043, 3784942044, 3784942045, 3784942046, 3784942039], "tags": {"addr:city": "广州市", "amenity": "school", "education": "school", "name": "棠德南小学(北校区)", "name:en": "Tangdenan Primary School (North Campus)", "name:zh": "棠德南小学(北校区)"}}, {"type": "way", "id": 379527523, "center": {"lat": 23.1679887, "lon": 113.3237978}, "nodes": [3828367993, 3828367998, 3828368003, 8403709465, 3828368004, 3828368005, 3828368006, 3828367997, 3828368001, 3828368000, 3828368007, 3828367994, 6358234598, 6358234609, 9526083408, 9526083409, 6358234607, 6358234606, 6358234605, 6358234604, 6358234603, 6358234602, 6358234601, 6358234600, 9526083407, 6358234599, 6358234597, 3828367995, 8403709477, 3828367996, 3828367993], "tags": {"amenity": "college", "education": "college", "name": "广州市第七十五中学(高中部)", "name:en": "Guangzhou No.75 Middle School (Senior High School Campus)", "name:zh": "广州市第七十五中学(高中部)"}}, {"type": "way", "id": 379529575, "center": {"lat": 23.1597582, "lon": 113.3264427}, "nodes": [3828387359, 3828387360, 3828387361, 3828387362, 5572445502, 5572445500, 5572445501, 3828387363, 5572445503, 5572445504, 5536991218, 4030153081, 3828387364, 7946515206, 7946515205, 3828387365, 3828387366, 3828387359], "tags": {"amenity": "college", "education": "college", "name": "广东农工商职业技术学院(粤垦路校区)", "name:en": "Guangdong AIB Polytechnic College (Yuekenlu Campus)", "name:zh": "广东农工商职业技术学院(粤垦路校区)"}}, {"type": "way", "id": 400487956, "center": {"lat": 23.1525788, "lon": 113.3504425}, "nodes": [4030356212, 4030356213, 4030356218, 4030356214, 4030356215, 4030356216, 4030356217, 4030356212], "tags": {"amenity": "school", "education": "school", "name": "五山小学东校区", "name:en": "Wushan Primary School (East Campus)", "name:zh": "五山小学东校区"}}, {"type": "way", "id": 400487957, "center": {"lat": 23.1528747, "lon": 113.3510848}, "nodes": [4030356218, 4030356219, 4030356220, 4030356215, 4030356218], "tags": {"amenity": "school", "education": "school", "name": "五山花园幼儿园", "name:zh": "五山花园幼儿园"}}, {"type": "way", "id": 405833093, "center": {"lat": 23.1368806, "lon": 113.393239}, "nodes": [4079843548, 4079843563, 4079843562, 4079843561, 4079843549, 4079843550, 4079843551, 4079843552, 4079843553, 4079843554, 4079843555, 4079843556, 4079843557, 4079843558, 4079843559, 4079843560, 4079843565, 4079843564, 4079843548], "tags": {"amenity": "school", "education": "school", "grades": "7-12", "name": "广州奥林匹克中学(车陂路校区)", "name:en": "Guangzhou Olympic Secondary School (Chebei Road Campus)", "name:zh": "广州奥林匹克中学(车陂路校区)", "old_name": "东圃中学高中部"}}, {"type": "way", "id": 414646815, "center": {"lat": 23.1451472, "lon": 113.3279154}, "nodes": [4157619168, 4157619169, 4157619170, 4157619172, 4157619173, 5245200084, 5245200085, 5245200086, 5245200087, 4157619174, 5245200082, 5245200098, 13195675787, 4157619168], "tags": {"amenity": "school", "education": "school", "name": "华阳小学(天润校区)", "name:en": "Guangzhou Middle School Education Group Tianrun campus", "name:zh": "华阳小学(天润校区)"}}, {"type": "way", "id": 426075307, "center": {"lat": 23.1316209, "lon": 113.3298463}, "nodes": [4253918873, 4253918874, 4253918875, 4253918876, 4253918873], "tags": {"amenity": "school", "education": "school", "name": "广州市天河中学", "name:en": "Guangzhou Tianhe Middle School", "name:zh": "广州市天河中学", "website": "http://www.thzx.org:81/", "wikipedia": "zh-yue:廣州市天河中學"}}, {"type": "way", "id": 430038922, "center": {"lat": 23.1459759, "lon": 113.3138326}, "nodes": [4292989546, 4292989529, 4292989522, 4292989520, 5629629774, 5629629775, 5629629776, 5629629777, 5629629778, 5629629779, 4292989521, 4292989523, 4292989524, 4292989525, 4292989540, 4292989539, 4292989542, 4292989547, 5228994374, 6856921668, 6856921666, 6856921665, 6856921664, 6856921663, 6856921667, 6856921662, 6856921661, 6856921660, 6856921659, 6856921658, 6856921657, 6856921656, 6856921655, 6856921653, 6856921652, 6856921654, 6856921651, 6856921650, 4292989546], "tags": {"amenity": "university", "education": "university", "name": "广州体育学院", "name:en": "Guangzhou Sport University", "name:vi": "Học viện Thể thao Quảng Châu", "name:zh": "广州体育学院", "wikidata": "Q5613743", "wikimedia_commons": "Category:Guangzhou Sport University", "wikipedia": "en:Guangzhou Sport University"}}, {"type": "way", "id": 447228030, "center": {"lat": 23.1679954, "lon": 113.3775766}, "nodes": [4444019277, 4444019278, 4444019279, 4444019280, 4444019281, 4444019282, 4444019277], "tags": {"amenity": "school", "education": "school", "name": "岑村小学", "name:en": "Cencun Primary School", "name:zh": "岑村小学"}}, {"type": "way", "id": 454906204, "center": {"lat": 23.1264726, "lon": 113.3627082}, "nodes": [4513920639, 4513920640, 4513920641, 4513920642, 4513920639], "tags": {"amenity": "hospital", "healthcare": "hospital", "name": "天河区中医院", "name:en": "Tianhe Hospital of TCM", "name:zh": "天河区中医院"}}, {"type": "way", "id": 471505259, "center": {"lat": 23.1348156, "lon": 113.4234046}, "nodes": [4656611660, 4656611661, 4656611662, 4656611663, 4656611671, 4656611664, 4656611665, 4656611666, 4656611667, 4656611660], "tags": {"amenity": "school", "education": "school", "name": "吉山小学", "name:en": "Jishan Primary School", "name:zh": "吉山小学"}}, {"type": "way", "id": 471505261, "center": {"lat": 23.1348653, "lon": 113.424446}, "nodes": [4656611668, 4656611661, 4656611662, 4656611663, 4656611671, 4656611672, 4656611673, 3105617872, 4656611668], "tags": {"addr:city": "广州市 / Guangzhou", "addr:housenumber": "60", "addr:street": "珠吉路", "amenity": "school", "education": "school", "name": "广州市天河区同仁学校", "name:en": "Guangzhou Tianhe Tongren School", "name:zh": "广州市天河区同仁学校"}}, {"type": "way", "id": 475286581, "center": {"lat": 23.144521, "lon": 113.4344769}, "nodes": [4690515461, 4690515462, 4690515463, 4690515464, 4690515465, 4690515471, 4690515472, 4690515473, 4690515474, 4690515475, 4690515476, 4690515477, 4690515478, 4690515479, 4690515480, 4690516593, 4690516598, 4690516599, 4690516600, 4690516601, 4690516603, 4690516602, 4690515461], "tags": {"addr:city": "广州市 / Guangzhou", "addr:housenumber": "660号", "addr:street": "珠吉路", "amenity": "school", "education": "school", "name": "广州现代信息工程职业技术学院(北校区)", "name:en": "Guangzhou Modern Information Engineering College (North Campus)", "name:zh": "广州现代信息工程职业技术学院(北校区)"}}, {"type": "way", "id": 495909961, "center": {"lat": 23.1278273, "lon": 113.3643416}, "nodes": [4876293275, 2049194322, 2049194308, 2049194328, 2049194336, 2049194316, 4876293276, 4876293277, 4876293278, 5139322760, 5139322761, 4876293275], "tags": {"amenity": "school", "education": "school", "name": "天府路小学建业校区"}}, {"type": "way", "id": 495910709, "center": {"lat": 23.1207772, "lon": 113.3586112}, "nodes": [4876305267, 4876305268, 4876305269, 4876305270, 4876305271, 4876305272, 4876305273, 4876305274, 4876305267], "tags": {"amenity": "hospital", "healthcare": "hospital", "name": "中山大学附属第六医院", "name:en": "The 6th Affiliated Hospital of Sun Yat-sen University", "name:zh": "中山大学附属第六医院"}}, {"type": "way", "id": 500009572, "center": {"lat": 23.1240643, "lon": 113.3593386}, "nodes": [4911786985, 4911786986, 4911786987, 4911786988, 4911786989, 4911786990, 4911786991, 6203832477, 4911786992, 4911786993, 4911786994, 4911786995, 5139320758, 4911786985], "tags": {"amenity": "school", "education": "school", "name": "广州市第一一三中学(金融城校区)", "name:en": "Guangzhou No.113 Middle School", "name:zh": "广州市第一一三中学(金融城校区)", "operator:type": "public", "wheelchair": "yes"}}, {"type": "way", "id": 500024002, "center": {"lat": 23.1279174, "lon": 113.3627273}, "nodes": [4911885300, 4911885301, 4911885302, 4911885303, 4911885300], "tags": {"amenity": "kindergarten", "education": "kindergarten", "name": "天河实验幼儿园", "name:zh": "天河实验幼儿园"}}, {"type": "way", "id": 500035596, "center": {"lat": 23.137346, "lon": 113.3572417}, "nodes": [4911968042, 4941874381, 11097303649, 4911968043, 4941874382, 4911968045, 4911968046, 4911968047, 4911968048, 4911968042], "tags": {"alt_name": "南医三院", "amenity": "hospital", "emergency": "yes", "healthcare": "hospital", "name": "南方医科大学第三附属医院", "name:en": "The Third Affiliated Hospital of Southern Medical University", "name:zh": "南方医科大学第三附属医院"}}, {"type": "way", "id": 500035597, "center": {"lat": 23.1399877, "lon": 113.3580673}, "nodes": [4911968049, 4941874355, 4911968050, 9721152705, 4911968051, 4911968052, 4911968053, 4911968054, 4941874354, 4911968055, 4911968056, 4911968057, 4911968049], "tags": {"amenity": "hospital", "healthcare": "hospital", "name": "南方医科大学第三附属医院"}}, {"type": "way", "id": 503954686, "center": {"lat": 23.1397221, "lon": 113.3568427}, "nodes": [4941874365, 4941874366, 4941874367, 4513872385, 4941874365], "tags": {"amenity": "kindergarten", "education": "kindergarten", "name": "华景幼儿园", "name:zh": "华景幼儿园"}}, {"type": "way", "id": 503957718, "center": {"lat": 23.1352141, "lon": 113.3561778}, "nodes": [4941891023, 11738529785, 6537064615, 4941891025, 4941891026, 4941891027, 11738349213, 11738349207, 4941891023], "tags": {"amenity": "school", "check_date": "2024-03-16", "education": "school", "name": "天府路小学", "name:en": "Tianfulu Primary School", "name:zh": "天府路小学", "operator:type": "public", "wheelchair": "yes"}}, {"type": "way", "id": 513793173, "center": {"lat": 23.1321142, "lon": 113.3206239}, "nodes": [5021463873, 5021463874, 5021463875, 3646916393, 3646916493, 5021463873], "tags": {"amenity": "school", "education": "school", "name": "体育西路小学", "name:en": "Tiyu Xilu Primary School", "name:zh": "体育西路小学"}}, {"type": "way", "id": 517119002, "center": {"lat": 23.2164187, "lon": 113.3756749}, "nodes": [5047100272, 5060446797, 5047100273, 5047100274, 5047100275, 5047100276, 5047100277, 5047100278, 5047100279, 5047100280, 5047100265, 5047100264, 5047100263, 5047100262, 5047100261, 5047100260, 5047100281, 5047100282, 5047100283, 5047100284, 5047100285, 5047100286, 5047100272], "tags": {"amenity": "college", "name": "广东工程职业技术学院", "name:en": "Guangdong Engineering Polytechnic", "name:zh": "广东工程职业技术学院"}}, {"type": "way", "id": 517119398, "center": {"lat": 23.2276279, "lon": 113.3801316}, "nodes": [5047104425, 5047104426, 5047104427, 5047104428, 5047104429, 5047104430, 5047104431, 5047104432, 5047104433, 5047104434, 5047104435, 5047104436, 5047104437, 5047104438, 5047104439, 5047104440, 5047104441, 5047104442, 5047104443, 5047104450, 5047104444, 1753763515, 1753763566, 1753763671, 1753763666, 3095620558, 3095620592, 5047104445, 5047104446, 5047104447, 5047104448, 5047104449, 5047104425], "tags": {"amenity": "college", "name": "广州卫生职业技术学院", "name:zh": "广州卫生职业技术学院"}}, {"type": "way", "id": 518860228, "center": {"lat": 23.2167069, "lon": 113.37289}, "nodes": [5060446798, 5060446799, 5060446800, 5060446801, 5060446798], "tags": {"amenity": "school", "education": "school", "name": "渔兴学校", "name:zh": "渔兴学校"}}, {"type": "way", "id": 518860232, "center": {"lat": 23.2059984, "lon": 113.3699711}, "nodes": [5060446808, 5060446809, 5060446810, 5060446811, 9874487779, 9874487780, 5060446812, 5060446814, 5060446815, 5060446816, 5060446817, 9874487782, 5060446819, 9874487781, 5060446818, 5060446808], "tags": {"amenity": "college", "name": "广东食品药品职业学院", "name:en": "Guangdong Food and Drug Vocational College", "name:zh": "广东食品药品职业学院", "wikidata": "Q30281673"}}, {"type": "way", "id": 518860233, "center": {"lat": 23.2008348, "lon": 113.3662993}, "nodes": [5060448721, 6368896846, 6368896847, 5060448722, 5060448723, 5060448724, 5060448725, 5060448726, 5060448727, 5060448721], "tags": {"amenity": "college", "name": "广东省外语艺术职业学院(龙洞校区)", "name:en": "Guangdong Teachers College of Foreign Language and Arts (Longdong Campus)", "old_name": "广东对外贸易职业学校"}}, {"type": "way", "id": 519276966, "center": {"lat": 23.1294693, "lon": 113.3450974}, "nodes": [5228290123, 5228290125, 5228290126, 5228290127, 6417952193, 5228290124, 5229674341, 5229674526, 5229674527, 5229674528, 5229674529, 5229674530, 5229674531, 5228290123], "tags": {"amenity": "hospital", "healthcare": "hospital", "name": "暨南大学附属第一医院 (广州华侨医院)", "name:en": "The First Affiliated Hospital of Jinan University", "name:zh": "暨南大学附属第一医院 (广州华侨医院)"}}, {"type": "way", "id": 520946004, "center": {"lat": 23.1975371, "lon": 113.3827569}, "nodes": [5076569516, 5076569517, 5076569626, 5076569627, 5076569518, 5076569519, 5076569520, 5076569621, 5076569622, 5076569623, 5076569624, 5076569625, 5076569516], "tags": {"amenity": "college", "name": "广州新华学院(广州校区)", "name:en": "Guangzhou Xinhua College (Guangzhou Campus)", "name:zh": "广州新华学院(广州校区)", "old_name": "中山大学新华学院"}}, {"type": "way", "id": 523718595, "center": {"lat": 23.2020961, "lon": 113.3879501}, "nodes": [5097911388, 5097911389, 5097911390, 5097911391, 5097911392, 5097911393, 5097911388], "tags": {"addr:city": "广州市", "addr:district": "天河区", "addr:housenumber": "19号", "addr:province": "广东省", "addr:street": "柯木塱大坪街", "amenity": "school", "education": "school", "name": "凤凰中学", "name:en": "Fenghuang Middle School", "name:zh": "凤凰中学"}}, {"type": "way", "id": 524593993, "center": {"lat": 23.1450304, "lon": 113.3329649}, "nodes": [5104832329, 5104832330, 5104832331, 5104832332, 5104832333, 5104832334, 5104832329], "tags": {"amenity": "kindergarten", "education": "kindergarten", "name": "鸣远幼儿园", "name:zh": "鸣远幼儿园"}}, {"type": "way", "id": 528961405, "center": {"lat": 23.1273049, "lon": 113.3631124}, "nodes": [5139322756, 5139322757, 5139322758, 5139322759, 5139322756], "tags": {"amenity": "kindergarten", "education": "kindergarten", "name": "天河实验幼儿园", "name:zh": "天河实验幼儿园"}}, {"type": "way", "id": 529483040, "center": {"lat": 23.2070657, "lon": 113.3801206}, "nodes": [5143271954, 5143271965, 5143271955, 5143271956, 5143271957, 5809984243, 5809984244, 5809984245, 5143271958, 5143271959, 5809984247, 5809984246, 5143271961, 5143271962, 5143271963, 5143271964, 5143271954], "tags": {"amenity": "school", "education": "school", "name": "广州中学(凤凰校区)", "name:en": "Guangzhou Middle School (Fenghuang Campus)", "name:zh": "广州中学(凤凰校区)"}}, {"type": "way", "id": 538783774, "center": {"lat": 23.1347437, "lon": 113.3719229}, "nodes": [5214527279, 5214527280, 5214527281, 5214527282, 5214527283, 5214527284, 9893524302, 5214527279], "tags": {"amenity": "school", "education": "school", "name": "科韵路学校", "name:en": "Keyunlu School", "name:zh": "科韵路学校"}}, {"type": "way", "id": 540259463, "center": {"lat": 23.1381267, "lon": 113.3260924}, "nodes": [5227014119, 5227014120, 5227014321, 5227014322, 5227014119], "tags": {"amenity": "school", "education": "school", "name": "广州天河区华康小学", "name:en": "Guangzhou Tianhe Huakang Primary School", "name:zh": "广州天河区华康小学"}}, {"type": "way", "id": 541538820, "center": {"lat": 23.2016956, "lon": 113.379104}, "nodes": [5236435074, 3092721334, 3092720931, 3092679641, 5236435075, 5236435076, 5236435077, 5236435078, 5236435079, 5236435080, 5236435081, 5236435082, 5236435083, 5236435084, 5236435085, 5236435086, 5236435087, 5236435088, 5236435074], "tags": {"amenity": "school", "education": "school", "name": "广州华美英语实验学校", "name:en": "Guangzhou Huamei International School", "name:zh": "广州华美英语实验学校"}}, {"type": "way", "id": 543834633, "center": {"lat": 23.1285691, "lon": 113.3472107}, "nodes": [5257160897, 5257160898, 5257160899, 6378638286, 5257160900, 5257160897], "tags": {"amenity": "school", "education": "school", "name": "天府路小学(翠湖校区)", "name:en": "Tianfulu Primary School (Cuihu Campus)", "name:zh": "天府路小学(翠湖校区)"}}, {"type": "way", "id": 544327388, "center": {"lat": 23.1981951, "lon": 113.3549095}, "nodes": [5261940145, 5261943390, 5261940146, 5261940147, 5261940148, 5261940149, 5261940150, 5261940151, 5261940152, 5261940153, 5261940154, 5261940155, 5261940156, 5261940157, 5261940158, 5261940159, 5261940160, 5261940161, 5261940162, 5261940163, 5261940164, 5261940165, 5261940167, 5261940168, 5261940169, 5261940170, 5261940171, 5261940172, 5261943391, 5261940173, 5261940174, 9796498951, 9796498952, 5261940175, 5261940176, 5261940177, 5261940178, 5261940145], "tags": {"amenity": "university", "education": "university", "name": "广东工业大学龙洞校区", "name:en": "Guangdong University of Technology (Longdong Campus)", "name:zh": "广东工业大学龙洞校区"}}, {"type": "way", "id": 544347022, "center": {"lat": 23.1383002, "lon": 113.3588069}, "nodes": [5262133475, 5262133476, 5262133477, 5262133478, 5262133479, 5262133480, 5262133481, 5262133482, 5262133483, 5262133484, 5262133485, 5262133486, 5262133487, 9838873599, 9838873600, 5262133488, 9838873601, 5262133489, 5262133490, 5262133491, 5262133492, 9838979497, 9838979498, 9838979499, 5262133475], "tags": {"amenity": "college", "education": "college", "name": "广东邮电职业技术学院", "name:en": "Guangdong Vocational College of Post and Telecom", "name:zh": "广东邮电职业技术学院"}}, {"type": "way", "id": 544812761, "center": {"lat": 23.1276, "lon": 113.3136947}, "nodes": [5266099852, 5266099853, 5266099854, 5266099855, 5266099852], "tags": {"amenity": "hospital", "healthcare": "hospital", "healthcare:speciality": "ophthalmology", "name": "中山大学眼科中心", "name:zh": "中山大学眼科中心"}}, {"type": "way", "id": 544818126, "center": {"lat": 23.1321161, "lon": 113.3545276}, "nodes": [5266145256, 5266145257, 5266145258, 11738349199, 5266145259, 5266145260, 5266145261, 5266145256], "tags": {"amenity": "school", "check_date": "2024-03-16", "education": "school", "name": "广州市第一一三中学(东方校区)", "name:en": "Guangzhou No.113 Middle School (Dongfang Campus)", "name:zh": "广州市第一一三中学(东方校区)", "operator:type": "public", "wheelchair": "yes"}}, {"type": "way", "id": 545627636, "center": {"lat": 23.136523, "lon": 113.3359962}, "nodes": [5273238774, 5608307415, 5273238775, 5273238776, 5273238777, 5608307395, 5273238778, 5608310848, 5273238779, 5608310851, 5608307414, 5608310853, 5608307413, 5273238780, 5273238781, 5273238782, 5273238783, 5608310863, 5273238784, 5273238785, 5273238786, 5273238787, 5273238774], "tags": {"addr:city": "广州市", "addr:district": "天河区", "addr:housenumber": "600", "addr:province": "广东省", "addr:street": "天河路", "amenity": "hospital", "healthcare": "hospital", "name": "中山大学附属第三医院", "name:en": "The Third Affiliated Hospital of Sun Yat-Sen University", "name:zh-Hant": "中山大學附屬第三醫院", "opening_hours": "Mo-Su 07:00-22:00", "phone": "+86 20 8525 3333;+86 20 8525 3203", "website": "https://www.zssy.com.cn/", "wikidata": "Q10875264", "wikimedia_commons": "Category:The Third Affiliated Hospital, Sun Yat-sen University", "wikipedia": "zh:中山大学附属第三医院"}}, {"type": "way", "id": 547068729, "center": {"lat": 23.1321735, "lon": 113.3148056}, "nodes": [5286065732, 5286065733, 5286065734, 5286065735, 5286065737, 5286065736, 5286065732], "tags": {"amenity": "school", "education": "school", "name": "天荣中学"}}, {"type": "way", "id": 547678390, "center": {"lat": 23.1530731, "lon": 113.3574945}, "nodes": [5291744829, 3739771508, 5291744830, 5291744831, 5291744832, 5291744833, 3739771519, 5291744834, 5291744835, 9143905198, 9143905197, 5291744836, 5291744837, 5291744838, 5291744829], "tags": {"amenity": "school", "barrier": "wall", "education": "school", "name": "汇景实验学校", "name:en": "Huijing Experimental School", "name:zh": "汇景实验学校"}}, {"type": "way", "id": 551890089, "center": {"lat": 23.1722782, "lon": 113.3148877}, "nodes": [5329237280, 5329237277, 8403705104, 8403705103, 8403705102, 5329237278, 8403705100, 5329237279, 5329237280], "tags": {"amenity": "school", "education": "school", "name": "四海小学", "name:en": "Sihai Primary School", "name:zh": "四海小学"}}, {"type": "way", "id": 560851709, "center": {"lat": 23.1242791, "lon": 113.3144134}, "nodes": [5408792645, 5408792646, 5408792647, 5408792648, 5408792645], "tags": {"amenity": "school", "education": "school", "name": "广州市天河中学(珠江新城校区)", "name:en": "Guangzhou Tianhe Middle School (Zhujiang New Town Campus)", "name:zh": "广州市天河中学(珠江新城校区)"}}, {"type": "way", "id": 560851710, "center": {"lat": 23.1275001, "lon": 113.3148516}, "nodes": [5408792654, 5408792655, 5408792656, 5408792657, 5408792658, 10751197434, 5408792654], "tags": {"addr:housenumber": "9", "addr:street": "金穗路", "amenity": "hospital", "emergency": "yes", "healthcare": "hospital", "name": "广州市妇女儿童医疗中心", "name:en": "Guangzhou Women and Children's Medical Center", "name:zh": "广州市妇女儿童医疗中心", "website": "https://www.gzfezx.com", "wikidata": "Q120785869", "wikimedia_commons": "Category:Guangzhou Women and Children's Medical Center Zhujiang New Town Branch"}}, {"type": "way", "id": 561739692, "center": {"lat": 23.1278949, "lon": 113.330161}, "nodes": [5416179616, 5416179617, 5416179618, 5416179619, 5416179620, 5416179616], "tags": {"amenity": "school", "education": "school", "name": "冼村小学", "name:en": "Xiancun Primary School", "name:zh": "冼村小学"}}, {"type": "way", "id": 574959310, "center": {"lat": 23.1324341, "lon": 113.3698003}, "nodes": [5517955287, 5517955288, 5517955289, 5517955290, 5517955291, 5517955287], "tags": {"amenity": "school", "check_date": "2025-12-09", "education": "school", "name": "棠下小学", "name:en": "Tangxia Primary School", "name:zh": "棠下小学"}}, {"type": "way", "id": 575737293, "center": {"lat": 23.19464, "lon": 113.4026116}, "nodes": [5523893950, 5523893951, 5523893952, 5523893953, 5523893954, 5523893955, 5523893956, 5523893950], "tags": {"amenity": "school", "education": "school", "name": "广州市天河区高塘石小学", "name:en": "Guangzhou Tianhe Gaotangshi Primary School", "name:zh": "广州市天河区高塘石小学"}}, {"type": "way", "id": 577615285, "center": {"lat": 23.1561547, "lon": 113.3195851}, "nodes": [5536960331, 5536960332, 5536960333, 5536960334, 5536960335, 5536960336, 5536960337, 5536960338, 5536960339, 5536960340, 5536960341, 5536960342, 5536960343, 5536960344, 5536960331], "tags": {"amenity": "hospital", "healthcare": "hospital", "name": "中山大学附属第六医院(北院区)", "name:zh": "中山大学附属第六医院(北院区)"}}, {"type": "way", "id": 577623586, "center": {"lat": 23.1419306, "lon": 113.330905}, "nodes": [5536991134, 5536991135, 5536991136, 5536991137, 5536991138, 5536991139, 5536991140, 5536991141, 5536991134], "tags": {"amenity": "school", "education": "school", "name": "龙口西小学（帝景校区）", "name:en": "Longkouxi Primary School (Dijing Campus)", "name:zh": "龙口西小学（帝景校区）"}}, {"type": "way", "id": 582746716, "center": {"lat": 23.1590158, "lon": 113.3331591}, "nodes": [5572506472, 5572506473, 5572506474, 5572506475, 5572506472], "tags": {"amenity": "kindergarten", "education": "kindergarten", "name": "五所幼儿园", "name:zh": "五所幼儿园"}}, {"type": "way", "id": 582746734, "center": {"lat": 23.1550368, "lon": 113.3327824}, "nodes": [5572506462, 5572506461, 3652591235, 5572506746, 5572506462], "tags": {"amenity": "kindergarten", "education": "kindergarten", "name": "九洲康卓幼儿园", "name:zh": "九洲康卓幼儿园"}}, {"type": "way", "id": 582752468, "center": {"lat": 23.1559373, "lon": 113.3275775}, "nodes": [5572535695, 5572535697, 5536958910, 3745553580, 5572535695], "tags": {"amenity": "school", "education": "school", "name": "长征小学", "name:en": "Changzheng Primary School", "name:zh": "长征小学"}}, {"type": "way", "id": 582752470, "center": {"lat": 23.1597488, "lon": 113.3248689}, "nodes": [5572535711, 5572535712, 5572535713, 5572535714, 5572535711], "tags": {"amenity": "school", "education": "school", "name": "红英小学", "name:en": "Hongying Primary School", "name:zh": "红英小学"}}, {"type": "way", "id": 582752485, "center": {"lat": 23.1579579, "lon": 113.324382}, "nodes": [5572535890, 5572535891, 5572535892, 5572535893, 5572535894, 5572535895, 5572535890], "tags": {"amenity": "hospital", "healthcare": "hospital", "name": "广东燕岭医院", "name:en": "Guangdong Yanling Hospital", "name:zh": "广东燕岭医院"}}, {"type": "way", "id": 583073729, "center": {"lat": 23.1719564, "lon": 113.3440212}, "nodes": [5574944141, 5574944142, 5574944143, 5574944144, 5574944141], "tags": {"amenity": "school", "education": "school", "name": "长兴小学", "name:en": "Changxing Primary School", "name:zh": "长兴小学"}}, {"type": "way", "id": 583073730, "center": {"lat": 23.1745383, "lon": 113.3522102}, "nodes": [5574944145, 5574944146, 5574944147, 5574944148, 5574944149, 5574944150, 5574944151, 5574944152, 5574944153, 5574944154, 5574944155, 5574944145], "tags": {"amenity": "school", "education": "school", "name": "长湴小学", "name:en": "Changban Primary School", "name:zh": "长湴小学"}}, {"type": "way", "id": 585942444, "center": {"lat": 23.1183731, "lon": 113.3320268}, "nodes": [5598988737, 5598988738, 5598988739, 5598988740, 5598988737], "tags": {"amenity": "school", "education": "school", "name": "广州市天河中学猎德实验学校", "name:en": "Guangzhou Tianhe Middle School Liede Experimental School", "name:zh": "广州市天河中学猎德实验学校"}}, {"type": "way", "id": 585943745, "center": {"lat": 23.1260988, "lon": 113.3319935}, "nodes": [5599000165, 5599000166, 5599000167, 5599000168, 5599000169, 5599000170, 5599000171, 5599000172, 5599000173, 5599000174, 5599000175, 5599000165], "tags": {"amenity": "school", "education": "school", "name": "天河外国语学校", "name:en": "Guangzhou Tianhe Foreign Languages School", "name:zh": "天河外国语学校"}}, {"type": "way", "id": 587065194, "center": {"lat": 23.1567667, "lon": 113.3455448}, "nodes": [5608302196, 5608302197, 5608302198, 5608302199, 5608302200, 5608302201, 5608302202, 5608302203, 5608302207, 5608302204, 5608302206, 5608302205, 5608302196], "tags": {"amenity": "hospital", "healthcare": "hospital", "name": "华南理工大学医院", "name:en": "South China University oF Technology Hospital", "name:zh": "华南理工大学医院"}}, {"type": "way", "id": 589010846, "center": {"lat": 23.1216725, "lon": 113.3612784}, "nodes": [5624714699, 5624714700, 5624714701, 5624714702, 5624714699], "tags": {"amenity": "school", "education": "school", "name": "员村小学", "name:en": "Yuancun Primary School", "name:zh": "员村小学"}}, {"type": "way", "id": 591629577, "center": {"lat": 23.1664695, "lon": 113.3817291}, "nodes": [5647968716, 5647968717, 5647968718, 5647968719, 5647968720, 5647969221, 5647969222, 5647969223, 5647969224, 5647969244, 5647969225, 5647969226, 5647969227, 5647969228, 10261644154, 5647969229, 5647969230, 5647969231, 5647969232, 5647969233, 5647969234, 5647969235, 5647969236, 5647969237, 5647969238, 5647969239, 5647969240, 5647969241, 5647969242, 5647969243, 5647968716], "tags": {"amenity": "police", "name": "广州市公安局交通警察支队", "name:zh": "广州市公安局交通警察支队"}}, {"type": "way", "id": 591633802, "center": {"lat": 23.198775, "lon": 113.3985235}, "nodes": [5648006580, 5648006581, 5648006582, 5648006583, 5648006580], "tags": {"amenity": "kindergarten", "building": "yes", "name": "上涂幼儿园"}}, {"type": "way", "id": 595898966, "center": {"lat": 23.141483, "lon": 113.3370628}, "nodes": [5678197622, 5678197623, 5678197624, 5678197625, 5678197626, 5678197627, 5678197628, 8788289294, 8788289293, 5678197629, 5678197630, 5678197631, 5678197632, 5678197633, 5678197622], "tags": {"addr:city": "广州市", "addr:district": "天河区", "addr:province": "广东省", "amenity": "school", "education": "school", "grades": "7-9", "name": "华南师范大学附属中学初中部", "name:en": "Junior High School Affiliated to South China Normal University", "name:zh": "华南师范大学附属中学初中部"}}, {"type": "way", "id": 599678450, "center": {"lat": 23.1753379, "lon": 113.3330532}, "nodes": [5704597549, 5704597554, 5704597555, 5704597556, 5704597557, 5704597558, 5704597560, 5704597561, 5704597562, 5704597563, 5704597564, 5704597549], "tags": {"amenity": "college", "education": "college", "name": "广东省外语艺术职业学院(燕岭校区)", "name:en": "Guangdong Teachers College of Foreign Language and Arts (Yanling Campus)", "name:zh": "广东省外语艺术职业学院(燕岭校区)"}}, {"type": "way", "id": 603106093, "center": {"lat": 23.1713416, "lon": 113.3714088}, "nodes": [5726341269, 5726341277, 5726341276, 5726341275, 9295254368, 5726341278, 5726341269], "tags": {"amenity": "school", "education": "school", "name": "御景小学"}}, {"type": "way", "id": 603488838, "center": {"lat": 23.1534791, "lon": 113.3011173}, "nodes": [5728881180, 5728881181, 5728881182, 5677194262, 5728881180], "tags": {"amenity": "school", "barrier": "wall", "education": "school", "name": "先烈东路小学(沙河校区)", "name:en": "Xianlie Donglu Primary School (Shahe Campus)", "name:zh": "先烈东路小学(沙河校区)"}}, {"type": "way", "id": 603488839, "center": {"lat": 23.1518828, "lon": 113.2986501}, "nodes": [5728881183, 5728881184, 6580094136, 11024132251, 5728881185, 5728881186, 6580094130, 6580094132, 6580094127, 6580094128, 5728881187, 5728881183], "tags": {"amenity": "university", "barrier": "wall", "education": "university", "name": "星海音乐学院(沙河校区)", "name:en": "Xinghai Conservatory of Music (Shahe Campus)", "name:zh": "星海音乐学院(沙河校区)", "wikidata": "Q8044545", "wikipedia": "zh:星海音乐学院"}}, {"type": "way", "id": 603488840, "center": {"lat": 23.1539213, "lon": 113.3001746}, "nodes": [5728881188, 5728881189, 5728881190, 5728881191, 6580094138, 11028106184, 5728881188], "tags": {"amenity": "school", "barrier": "wall", "education": "school", "name": "广东省经济贸易职业技术学校"}}, {"type": "way", "id": 603662467, "center": {"lat": 23.154418, "lon": 113.3666726}, "nodes": [8474433495, 8203995073, 8474433494, 8474433493, 6116636621, 5730062217, 5730062219, 9143905199, 5730062220, 9143905910, 5730063221, 5730063222, 5730063223, 9430064960, 5730063224, 8973578301, 5730063225, 5730063226, 5730063227, 8474433506, 8474433495], "tags": {"amenity": "college", "education": "college", "landuse": "commercial", "name": "广东省农业科学院果树研究所", "name:en": "Institute of Fruit Tree Research, Guangdong Academy of Agricultural Sciences", "name:zh": "广东省农业科学院果树研究所", "office": "research", "website": "http://www.gdfruit.cn/"}}, {"type": "way", "id": 605092974, "center": {"lat": 23.1513643, "lon": 113.3015109}, "nodes": [5739961376, 5739961377, 5739961378, 5739961379, 5739961380, 5739961376], "tags": {"amenity": "university", "education": "university", "name": "广东工业大学(沙河校区)", "name:en": "Guangdong University of Technology (Shahe Campus)", "name:th": "มหาวิทยาลัยเทคโนโลยีกวางตุ้ง", "name:zh": "广东工业大学(沙河校区)", "website": "https://www.gdut.edu.cn/", "wikidata": "Q716822", "wikipedia": "zh:广东工业大学"}}, {"type": "way", "id": 605094012, "center": {"lat": 23.1495048, "lon": 113.3243907}, "nodes": [5739969434, 5739969435, 5739969436, 5739969437, 12976703183, 5739969438, 5739969439, 5739969440, 5739969441, 5739969442, 5739969443, 5739969434], "tags": {"amenity": "school", "education": "school", "name": "广州市幼儿师范学校"}}, {"type": "way", "id": 605094013, "center": {"lat": 23.1482439, "lon": 113.3296689}, "nodes": [5739969444, 5739969445, 5739969446, 5739969447, 5739969448, 5739969449, 5739969450, 5739969451, 5739969452, 5739969453, 5739969454, 5739969455, 5739969456, 5739969457, 5739969458, 5739969444], "tags": {"amenity": "college", "education": "college", "name": "广东水利电力职业技术学院(天河校区)", "name:en": "Guangdong Polytechnic of Water Resources and Electric Tianhe Campus", "name:zh": "广东水利电力职业技术学院(天河校区)"}}, {"type": "way", "id": 605094014, "center": {"lat": 23.1485536, "lon": 113.3325416}, "nodes": [5739969459, 5739969460, 10926167793, 10926170617, 5739969461, 10926167787, 5739969462, 5739969463, 5739969464, 5739969459], "tags": {"amenity": "university", "education": "university", "name": "广东技术师范大学", "name:en": "Guangdong Polytechnic Normal University", "name:zh": "广东技术师范大学"}}, {"type": "way", "id": 605094015, "center": {"lat": 23.1391231, "lon": 113.3330665}, "nodes": [5739969465, 5739969466, 9160904076, 5739969467, 5739969468, 5739969465], "tags": {"amenity": "school", "education": "school", "name": "龙口西小学（总校区）", "name:en": "Longkouxi Primary School"}}, {"type": "way", "id": 605094016, "center": {"lat": 23.14819, "lon": 113.3351023}, "nodes": [5739969469, 5739969470, 5739969471, 5739969472, 5739969469], "tags": {"amenity": "school", "education": "school", "name": "龙口西小学(穗园校区)", "name:en": "Longkouxi Primary School (Suiyuan Campus)", "name:zh": "龙口西小学(穗园校区)"}}, {"type": "way", "id": 613322022, "center": {"lat": 23.1354552, "lon": 113.374844}, "nodes": [5803538532, 5803538533, 5803538534, 5803538535, 5803538532], "tags": {"amenity": "school", "education": "school", "name": "棠德南小学", "name:en": "Tangdenan Primary School", "name:zh": "棠德南小学"}}, {"type": "way", "id": 613936880, "center": {"lat": 23.1371069, "lon": 113.3249182}, "nodes": [5808022971, 5808022970, 5808022969, 5808022968, 5808022967, 5808022966, 5808022971], "tags": {"amenity": "school", "education": "school", "grades": "7", "name": "广州中学(名雅校区)", "name:en": "Guangzhou Middle School (Mingya Campus)", "name:zh": "广州中学(名雅校区)"}}, {"type": "way", "id": 614119198, "center": {"lat": 23.1436788, "lon": 113.3500992}, "nodes": [5809451066, 12709559269, 12709559284, 12709559225, 5809451065, 12709559245, 12709559246, 5809451064, 5809451063, 5809451062, 5809451061, 5809451060, 5809451059, 5809451058, 5809451057, 5809451056, 5809451055, 5809451054, 12709559228, 5809451053, 5809451052, 12709559227, 12709559226, 12709559235, 5809451066], "tags": {"amenity": "school", "education": "school", "name": "华南师大附小", "name:en": "Affiliated Primary School of South China Normal University", "name:zh": "华南师大附小"}}, {"type": "way", "id": 614119201, "center": {"lat": 23.1722215, "lon": 113.3518289}, "nodes": [8637495242, 5809451115, 8637495243, 8637495244, 8637495245, 8637495246, 8637495242], "tags": {"amenity": "school", "education": "school", "name": "长兴中学", "name:en": "Changxing Middle School", "name:zh": "长兴中学"}}, {"type": "way", "id": 614129709, "center": {"lat": 23.2061607, "lon": 113.3587467}, "nodes": [5809547915, 5809547914, 5809547913, 5809547912, 5809547911, 5809547910, 5809547909, 5809547908, 5809547907, 5809547906, 5809547905, 5809547915], "tags": {"amenity": "college", "name": "广东省华侨职业技术学校", "name:en": "Guangdong Overseas Chinese Vocational School", "name:zh": "广东省华侨职业技术学校"}}, {"type": "way", "id": 614129711, "center": {"lat": 23.1950104, "lon": 113.3587499}, "nodes": [5060470322, 5809547936, 5060470323, 5060470324, 5809547933, 5060470325, 5809547931, 9193822965, 5809547930, 9193822964, 9193822963, 5060470326, 5809547929, 5809547928, 9193823013, 5809547927, 5809547926, 5809547925, 5809547924, 5809547923, 5809547922, 5809547921, 5809547920, 9879324801, 9879324802, 9147315309, 9147315310, 5060470321, 5060470322], "tags": {"amenity": "school", "education": "school", "name": "广州市第八十九中学", "name:en": "Guangzhou No.89 Middle School", "name:zh": "广州市第八十九中学"}}, {"type": "way", "id": 614176970, "center": {"lat": 23.2137068, "lon": 113.3731451}, "nodes": [5809984242, 5809984240, 5809984237, 5809984238, 5809984239, 5809984241, 5809984242], "tags": {"amenity": "school", "education": "school", "name": "渔沙坦小学", "name:en": "Yushatan Primary School", "name:zh": "渔沙坦小学"}}, {"type": "way", "id": 614176971, "center": {"lat": 23.2045428, "lon": 113.3756038}, "nodes": [5809984775, 5809984774, 5809984773, 5809984772, 5809984771, 5809984770, 5809984769, 5809984768, 5809984767, 5809984766, 5809984765, 5809984764, 5809984763, 5809984762, 5809984761, 5809984760, 5809984759, 5809984758, 5809984757, 5809984756, 5809984755, 5236435076, 5236435077, 5236435078, 5809984753, 5809984252, 5809984251, 5809984250, 5809984249, 5809984248, 5809984775], "tags": {"amenity": "college", "name": "广东金融学院", "name:en": "Guangdong University of Finance", "name:zh": "广东金融学院"}}, {"type": "way", "id": 614176972, "center": {"lat": 23.2029953, "lon": 113.3823414}, "nodes": [5809984804, 5809984803, 5809984802, 5809984801, 5809984800, 5809984799, 5809984798, 5809984797, 5809984796, 5809984795, 5809984794, 5809984793, 5809984792, 5809984791, 5809984790, 5809984789, 5809984788, 5809984787, 5809984786, 5809984785, 5809984784, 5809984783, 5809984782, 5809984781, 5809984780, 5809984779, 5809984778, 5809984777, 5809984776, 5809984804], "tags": {"amenity": "college", "name": "广东交通运输技师学院", "name:en": "Guangdong Provincial Transportation Technology Institute", "name:zh": "广东交通运输技师学院"}}, {"type": "way", "id": 614176973, "center": {"lat": 23.1955315, "lon": 113.3710214}, "nodes": [5809984824, 5809984823, 5809984822, 5809984821, 9399346378, 9399346377, 9399346376, 9399346375, 5809984820, 5809984819, 5809984818, 5809984817, 5809984816, 5809984815, 5809984814, 5809984813, 5809984812, 5809984811, 5809984810, 5809984809, 9430143574, 5809984808, 5809984807, 5809984806, 9430137371, 9430137370, 9430137369, 5809984805, 9430137368, 5809984824], "tags": {"amenity": "college", "barrier": "wall", "name": "广东生态工程职业学院", "name:en": "Guangdong Eco-Engineering Polytechnic", "name:zh": "广东生态工程职业学院"}}, {"type": "way", "id": 617673445, "center": {"lat": 23.1464835, "lon": 113.3234305}, "nodes": [5838708036, 8930761238, 8930761236, 5838708035, 8930761237, 5838708034, 5838708033, 5838708032, 5838708031, 8930761240, 8930761235, 5838708036], "tags": {"amenity": "school", "education": "school", "name": "华阳小学(林和东校区)", "name:en": "Guangzhou Tianhe Huayang Primary School", "name:zh": "华阳小学(林和东校区)"}}, {"type": "way", "id": 653313617, "center": {"lat": 23.1709431, "lon": 113.3733019}, "nodes": [6122826252, 6122826253, 5726341271, 6122826254, 6122826252], "tags": {"amenity": "kindergarten", "name": "华南御景幼儿园"}}, {"type": "way", "id": 653334496, "center": {"lat": 23.1444508, "lon": 113.4079301}, "nodes": [4731623172, 6122995145, 6122995146, 9411523833, 6122995147, 6122995148, 6122995149, 6122995150, 6122995151, 6122995152, 6122995153, 4731623147, 4731623136, 4731623132, 4731623127, 4731623155, 4731623172], "tags": {"amenity": "school", "education": "school", "name": "广东体育职业技术学院"}}, {"type": "way", "id": 653344351, "center": {"lat": 23.180079, "lon": 113.3460184}, "nodes": [6123112242, 6123112243, 6123112244, 6123112245, 6123112246, 6123112247, 6123112248, 6123112249, 6123112242], "tags": {"amenity": "school", "education": "school", "name": "天河嘉福学校"}}, {"type": "way", "id": 653344359, "center": {"lat": 23.1937187, "lon": 113.3633394}, "nodes": [6123112261, 6123112262, 6123112263, 6123112264, 6123112265, 6123112261], "tags": {"amenity": "school", "education": "school", "name": "龙洞小学世纪绿洲校区"}}, {"type": "way", "id": 653539155, "center": {"lat": 23.191527, "lon": 113.3681845}, "nodes": [6124740233, 6124740234, 6124740235, 6124740236, 6124740237, 6124740238, 6124740239, 6124740240, 6124740241, 6124740242, 6124740243, 6124740233], "tags": {"amenity": "driving_school", "name": "广东广物汽贸机动车教练场"}}, {"type": "way", "id": 653663605, "center": {"lat": 23.1513043, "lon": 113.3493313}, "nodes": [6125774737, 6125774738, 6125774739, 6125774740, 9316949606, 6125774737], "tags": {"amenity": "school", "education": "school", "name": "五山小学"}}, {"type": "way", "id": 653667295, "center": {"lat": 23.1721123, "lon": 113.3647871}, "nodes": [6125828293, 6125828296, 6125828297, 6125828298, 6125828293], "tags": {"amenity": "driving_school", "name": "广东警辉驾校"}}, {"type": "way", "id": 653667312, "center": {"lat": 23.1651614, "lon": 113.4052064}, "nodes": [6125828429, 6125828430, 6125828431, 6125828432, 6125828433, 6125828434, 6125828435, 6125828436, 6125828437, 6125828438, 6125828439, 6125828440, 6125828441, 6125828442, 6125828443, 6125828444, 6125828445, 6125828446, 6125828447, 6125828429], "tags": {"amenity": "school", "education": "school", "name": "新塘小学"}}, {"type": "way", "id": 655525092, "center": {"lat": 23.159335, "lon": 113.4182687}, "nodes": [6141738388, 6141738389, 6141738390, 6141738391, 6141738392, 6141738393, 6141738394, 6141738395, 13441800314, 13441800315, 6141738396, 6141738397, 6141738398, 13441800354, 6141738399, 6141738400, 13441800316, 13441800317, 13441800325, 13441800318, 13441800319, 13441800326, 13441800327, 13441800320, 13441800321, 13441800322, 13441800323, 13441800313, 8971279700, 6141738388], "tags": {"amenity": "school", "education": "school", "name": "广州市食品药品职业技术学校"}}, {"type": "way", "id": 659554252, "center": {"lat": 23.1587993, "lon": 113.4236984}, "nodes": [6175215833, 6175215835, 6175215836, 6175215837, 6175215838, 6175215839, 8971279708, 6175215840, 6175215841, 6175215842, 6175215843, 6175215844, 6175215845, 6175215846, 6175215847, 6175215848, 6175215849, 9162436448, 6175215850, 8971279706, 8971279707, 6175215853, 6175215854, 6175215833], "tags": {"amenity": "school", "education": "school", "name": "广东省电子商务高级技工学校"}}, {"type": "way", "id": 659554266, "center": {"lat": 23.1393816, "lon": 113.4231495}, "nodes": [6175223394, 6175223395, 6175223396, 13021079588, 13021079590, 13021079589, 13021079591, 6175223397, 6175223398, 6175223399, 13021079592, 6175223283, 6175223284, 6175223385, 6175223386, 6175223394], "tags": {"amenity": "school", "education": "school", "name": "广州思源学校", "website": "http://www.gzsiyuan.com/"}}, {"type": "way", "id": 659554268, "center": {"lat": 23.1346516, "lon": 113.4313136}, "nodes": [6175223407, 6175223408, 6175223409, 6175223410, 6175223411, 6175223412, 6175223407], "tags": {"amenity": "school", "education": "school", "name": "广州市华成理工职业技术学校"}}, {"type": "way", "id": 662671909, "center": {"lat": 23.1260928, "lon": 113.3775937}, "nodes": [6203694305, 6203694306, 6203694307, 6203694308, 6203694305], "tags": {"amenity": "school", "education": "school", "name": "骏景中学"}}, {"type": "way", "id": 662671910, "center": {"lat": 23.1241656, "lon": 113.3769256}, "nodes": [6203694309, 6203694310, 6203694311, 6203694312, 6203694309], "tags": {"amenity": "school", "education": "school", "name": "骏景小学"}}, {"type": "way", "id": 662685538, "center": {"lat": 23.1293076, "lon": 113.3126612}, "nodes": [6203797589, 6203797590, 6203797591, 6203797592, 6203797589], "tags": {"amenity": "school", "education": "school", "name": "广州市启聪学校"}}, {"type": "way", "id": 662685556, "center": {"lat": 23.1188315, "lon": 113.3388132}, "nodes": [6203797711, 6203797712, 6203797713, 6203797714, 6203797711], "tags": {"amenity": "school", "education": "school", "name": "广州市南国学校小学部", "name:en": "Guangzhou Nanguo School (Primary School)", "name:zh": "广州市南国学校小学部"}}, {"type": "way", "id": 662685558, "center": {"lat": 23.1189711, "lon": 113.3400992}, "nodes": [6203797717, 6203797718, 6203797719, 11032424831, 6203797720, 6203797721, 6203797722, 6203797717], "tags": {"amenity": "school", "education": "school", "name": "广州市南国学校中学部", "name:en": "Guangzhou Nanguo School (Middle School)", "name:yue-Hans": "广州市南国学校中学部", "name:zh": "广州市南国学校中学部"}}, {"type": "way", "id": 662685584, "center": {"lat": 23.1241696, "lon": 113.3507197}, "nodes": [6203797933, 6203797934, 6203797935, 6203797936, 6203797933], "tags": {"amenity": "school", "education": "school", "name": "天河区华颖外国语学校"}}, {"type": "way", "id": 662685585, "center": {"lat": 23.1255139, "lon": 113.3520624}, "nodes": [6203797937, 6203797938, 6203797939, 6203797940, 6203797937], "tags": {"amenity": "school", "education": "school", "name": "广州市天河区华融小学"}}, {"type": "way", "id": 662689770, "center": {"lat": 23.123632, "lon": 113.3540056}, "nodes": [6203832482, 6203832483, 6203832484, 6203832785, 6203832786, 6203832787, 6203832788, 6203832789, 6203832790, 6203832796, 6203832482], "tags": {"amenity": "school", "education": "school", "name": "广东省环境保护学校"}}, {"type": "way", "id": 662689775, "center": {"lat": 23.1223135, "lon": 113.3543432}, "nodes": [6203832812, 6203832813, 6203832814, 6203832815, 6203832816, 6203832817, 6203832812], "tags": {"amenity": "school", "education": "school", "name": "广州市天河区昌乐小学"}}, {"type": "way", "id": 679046414, "center": {"lat": 23.1625524, "lon": 113.3136604}, "nodes": [6358233878, 8369902013, 6358234591, 8369902012, 6358234592, 6358234593, 6358234594, 6358234595, 6358233881, 6358234596, 6358233879, 6358233878], "tags": {"amenity": "school", "education": "school", "name": "广州市第七十五中学"}}, {"type": "way", "id": 679046415, "center": {"lat": 23.1694241, "lon": 113.3247941}, "nodes": [6358234609, 6358234610, 6358234611, 6358234612, 6358234613, 6358234614, 6358234607, 9526083409, 9526083408, 6358234609], "tags": {"amenity": "college", "education": "college", "name": "广东省长大公路工程职业培训学院"}}, {"type": "way", "id": 679046416, "center": {"lat": 23.1695689, "lon": 113.3269951}, "nodes": [6358234615, 6358234616, 6358234617, 6358234618, 6358234615], "tags": {"amenity": "hospital", "healthcare": "hospital", "name": "广州华新骨科医院"}}, {"type": "way", "id": 679046417, "center": {"lat": 23.1844915, "lon": 113.3337907}, "nodes": [6358234619, 6358234638, 6358234620, 6358234621, 6358234622, 6358234623, 6358234624, 6358234625, 6358234626, 6358234627, 6358234628, 6358234629, 6358234630, 6358234631, 4685493562, 4685493561, 4685493560, 4685493559, 4685493558, 4685493557, 4685493556, 6358234632, 6358234633, 6358234634, 6358234635, 6358234636, 6358234637, 6358234619], "tags": {"addr:city": "广州市", "addr:district": "天河区", "addr:housenumber": "161", "addr:province": "广东省", "addr:street": "元岗北街", "amenity": "university", "education": "university", "name": "广州职业技术大学(元岗校区)", "name:en": "Guangzhou Polytechnic University", "name:zh": "广州职业技术大学", "website": "https://www.gzpyp.edu.cn/", "wikidata": "Q11062175", "wikipedia": "zh:广州职业技术大学"}}, {"type": "way", "id": 679050006, "center": {"lat": 23.1470561, "lon": 113.3068463}, "nodes": [6358345252, 6358345253, 6358345254, 6851261569, 6358345255, 6358345256, 6358345252], "tags": {"amenity": "school", "education": "school", "name": "广东舞蹈学校"}}, {"type": "way", "id": 679050007, "center": {"lat": 23.1486545, "lon": 113.3079557}, "nodes": [6358345257, 6358345258, 11343160433, 11343160434, 6358345259, 6358345260, 6358345261, 6358345262, 6358345263, 6358345264, 6358345257], "tags": {"amenity": "school", "education": "school", "name": "广州市天河职业高级中学"}}, {"type": "way", "id": 679050008, "center": {"lat": 23.1512184, "lon": 113.3075601}, "nodes": [6358345265, 6358345266, 12994982979, 12994982980, 12994982981, 12994982978, 6358345267, 6358345268, 12994982982, 12994982983, 6358345265], "tags": {"alt_name": "广东省口腔医院(沙河院区)", "amenity": "hospital", "healthcare": "hospital", "name": "南方医科大学口腔医院(沙河院区)", "name:en": "Stomatology Hospital of Southern Medical University (Shahe Branch)", "old_name": "广州市白云区人民医院"}}, {"type": "way", "id": 679123827, "center": {"lat": 23.19682, "lon": 113.3563427}, "nodes": [5261940175, 9796498952, 9796498951, 5261940174, 5261940173, 6359256456, 6359256457, 5261940145, 5261940178, 5261940177, 5261940176, 5261940175], "tags": {"amenity": "college", "name": "广东司法警官职业学院"}}, {"type": "way", "id": 679123828, "center": {"lat": 23.1934392, "lon": 113.3546455}, "nodes": [6359256458, 6359256459, 6359256460, 6359256461, 6359256462, 6920681488, 6359256463, 6359256464, 6920681525, 6359256469, 6359256468, 6359256467, 6359256465, 6359256466, 6359256458], "tags": {"amenity": "college", "name": "广州工程职业技术学院龙洞校区"}}, {"type": "way", "id": 679123829, "center": {"lat": 23.1927203, "lon": 113.3559321}, "nodes": [6359256465, 5060469412, 6920681526, 6359256469, 6359256468, 6359256467, 6359256465], "tags": {"amenity": "school", "education": "school", "name": "龙洞小学宝翠校区"}}, {"type": "way", "id": 679123831, "center": {"lat": 23.1891205, "lon": 113.3553443}, "nodes": [6359256478, 6359256479, 6359256480, 6359256481, 6359256482, 6359256483, 6359256484, 6359257485, 6359257486, 6920681491, 6920681490, 6359256478], "tags": {"amenity": "school", "education": "school", "landuse": "military", "name": "广东省人民武装学校"}}, {"type": "way", "id": 680201514, "center": {"lat": 23.215664, "lon": 113.359045}, "nodes": [5728698778, 6368896794, 6368896795, 6368896796, 6368896797, 6368896798, 6368896799, 6368896800, 5728698787, 5728698788, 5728698789, 5728698778], "tags": {"amenity": "school", "education": "school", "name": "广州暨大港澳子弟学校（天河校区）", "name:en": "AFFILIATED SCHOOL OF JNU For Hong Kong Macao Students-Guangzhou (Tianhe Campus)", "name:zh": "广州暨大港澳子弟学校（天河校区）"}}, {"type": "way", "id": 680201515, "center": {"lat": 23.2080683, "lon": 113.3913625}, "nodes": [7108625650, 6368896801, 7108625674, 7108625675, 7108625676, 7108625651, 7108625677, 6368896802, 6368896803, 6368896804, 6368896805, 6368896806, 6368896807, 7108625652, 7108625653, 7108625654, 7108625655, 7108625656, 7108625657, 7108625658, 7108625659, 7108625650], "tags": {"amenity": "police", "name": "广东省看守所"}}, {"type": "way", "id": 680201521, "center": {"lat": 23.206131, "lon": 113.3614567}, "nodes": [6368896837, 6368896838, 6368896839, 6368896840, 6368896837], "tags": {"amenity": "police", "name": "龙洞街派出所"}}, {"type": "way", "id": 680201525, "center": {"lat": 23.2024071, "lon": 113.3661531}, "nodes": [6368896845, 6368896846, 6368896847, 6368896848, 6368896849, 6368896845], "tags": {"amenity": "school", "education": "school", "name": "龙圣学校"}}, {"type": "way", "id": 680201528, "center": {"lat": 23.2102474, "lon": 113.3801136}, "nodes": [6368896850, 6368896851, 6368896852, 6368896853, 6368896854, 6368896850], "tags": {"amenity": "school", "education": "school", "name": "广州大华中英文学校"}}, {"type": "way", "id": 680271936, "center": {"lat": 23.1210104, "lon": 113.4190678}, "nodes": [6369608607, 6369608608, 6369608609, 6369608610, 6369608611, 6369608612, 6369608607], "tags": {"amenity": "school", "education": "school", "name": "珠村小学"}}, {"type": "way", "id": 680271938, "center": {"lat": 23.1210609, "lon": 113.4177672}, "nodes": [6369608616, 6369608617, 6369608610, 6369608609, 6369608608, 6369608607, 6369608616], "tags": {"amenity": "kindergarten", "education": "kindergarten", "name": "珠村幼儿园"}}, {"type": "way", "id": 681155641, "center": {"lat": 23.1305979, "lon": 113.3338437}, "nodes": [6378632531, 6378632532, 6378632533, 6378632534, 6378632531], "tags": {"amenity": "school", "education": "school", "name": "石牌小学"}}, {"type": "way", "id": 681156547, "center": {"lat": 23.1285088, "lon": 113.347741}, "nodes": [6378638287, 6378638288, 6378638289, 6378638290, 6378638287], "tags": {"amenity": "kindergarten", "education": "kindergarten", "name": "萃禾幼儿园"}}, {"type": "way", "id": 681400474, "center": {"lat": 23.1761661, "lon": 113.3435139}, "nodes": [3755023648, 6381073137, 6381073138, 6381073139, 6381073140, 3755023628, 3755023658, 6123112218, 6123112219, 3755023650, 3755023649, 3755023648], "tags": {"amenity": "school", "education": "school", "name": "广州市烟草专卖局培训中心"}}, {"type": "way", "id": 681400478, "center": {"lat": 23.1842947, "lon": 113.3515356}, "nodes": [6381073172, 6381073173, 6381073174, 10780940748, 10780940747, 10780940746, 10780940745, 6381073175, 6381073176, 6381073177, 6381073178, 6381073180, 6381073181, 6381073172], "tags": {"amenity": "school", "education": "school", "name": "广东省科技职业技术学校"}}, {"type": "way", "id": 693341410, "center": {"lat": 23.1642373, "lon": 113.3496268}, "nodes": [6509038945, 6509038946, 10677705875, 10677705876, 10677705877, 10677705878, 10677705879, 10677705880, 6509038947, 6509038948, 6509038950, 6509038951, 6509038945], "tags": {"amenity": "school", "barrier": "wall", "education": "school", "name": "华南农业大学附属小学"}}, {"type": "way", "id": 702261079, "center": {"lat": 23.1330094, "lon": 113.3295893}, "nodes": [6594753352, 6594753353, 6594753354, 6594753355, 6594753352], "tags": {"amenity": "kindergarten", "education": "kindergarten", "name": "德欣幼儿园"}}, {"type": "way", "id": 721070830, "center": {"lat": 23.1104988, "lon": 113.3944642}, "nodes": [6765531281, 6765531282, 6765531283, 6765531284, 6765563685, 6765563686, 6765563687, 6765563688, 6765563689, 6765563690, 6765563691, 6765563692, 6765531281], "tags": {"amenity": "police", "name": "广东海警局", "name:zh": "广东海警局", "name:zh-Hans": "广东海警局", "name:zh-Hant": "廣東海警局"}}, {"type": "way", "id": 729491566, "center": {"lat": 23.1750904, "lon": 113.3152444}, "nodes": [6834071365, 6834071366, 6834071367, 6834071368, 6834071369, 6834071370, 6834071371, 6834071372, 6834071373, 6834071374, 6834071375, 6834071376, 6834071377, 6834071365], "tags": {"amenity": "college", "education": "college", "name": "广东工贸职业技术学院"}}, {"type": "way", "id": 731236117, "center": {"lat": 23.1178003, "lon": 113.3370908}, "nodes": [6849149128, 6849149129, 6849149130, 6849149131, 6849149128], "tags": {"amenity": "school", "education": "school", "name": "体育东路小学(东校区)", "name:en": "Tiyudong Road Middle School (East Campus)", "name:zh": "体育东路小学(东校区)"}}, {"type": "way", "id": 731576222, "center": {"lat": 23.1468891, "lon": 113.3020987}, "nodes": [6851261544, 6851261545, 6851261546, 6851261547, 6851261548, 6851261549, 6851261550, 6851261551, 6851261552, 6851261553, 6851261554, 6851261555, 6851261556, 6851261557, 6851261558, 6851261559, 6851261560, 6851261544], "tags": {"amenity": "school", "education": "school", "name": "广州市第十六中学(水荫校区)", "name:en": "Guangzhou No.16 Middle School (Shuiyin Campus)", "name:zh": "广州市第十六中学(水荫校区)"}}, {"type": "way", "id": 732271000, "center": {"lat": 23.1516961, "lon": 113.3137521}, "nodes": [6856887191, 9398202379, 6856887193, 6856887194, 6856887196, 6856887197, 9526087732, 6856887198, 9526087733, 6856887199, 6856887200, 6856887201, 6856887202, 6856887203, 6856887204, 6856887205, 6856887206, 6856887207, 6856887208, 6856887209, 6856887210, 6856887211, 6856887212, 6856887213, 6856887214, 6856887215, 6856887216, 6856887217, 6856887218, 6856887219, 6856887220, 6856887221, 6856887222, 6856887223, 6856887224, 6856887225, 6856887226, 6856887227, 6856887228, 6856887229, 6856887230, 6856887231, 6856887232, 6856887233, 6856887234, 6856887235, 6856887236, 6856887237, 6856887238, 6856887239, 6856887240, 6856887241, 6856887242, 6856887243, 6856887244, 6856887245, 6856887246, 6856887247, 6856887248, 6856887249, 6856887190, 6856887189, 6856887192, 6856887191], "tags": {"amenity": "college", "landuse": "military", "name": "陆军特种作战学院", "name:en": "PLA Army Special Operations Academy", "wikidata": "Q126960101", "wikipedia": "zh:中国人民解放军陆军特种作战学院"}}, {"type": "way", "id": 737617032, "center": {"lat": 23.195963, "lon": 113.4006191}, "nodes": [6906200018, 8962796971, 8962796972, 6906200019, 6906200020, 6906200021, 6906200022, 6906200023, 6906200024, 6906200025, 6906200026, 6906200027, 6906200028, 6906200029, 6906200018], "tags": {"amenity": "college", "name": "广东电力学校"}}, {"type": "way", "id": 737870918, "center": {"lat": 23.1244414, "lon": 113.3123762}, "nodes": [6909039336, 6909039337, 6909039338, 6909039339, 6909039340, 6909039341, 6909039342, 6909039343, 6909039344, 6909039345, 6909039346, 6909039347, 6909039336], "tags": {"amenity": "school", "education": "school", "name": "广州市天河中学(珠江新城校区)学生公寓"}}, {"type": "way", "id": 739097955, "center": {"lat": 23.2076866, "lon": 113.3602189}, "nodes": [6920250924, 6920250925, 6920250926, 6920250927, 6920250924], "tags": {"amenity": "kindergarten", "name": "月亮湾幼儿园"}}, {"type": "way", "id": 766605355, "center": {"lat": 23.1096274, "lon": 113.4095491}, "nodes": [7159876820, 8274213171, 8274213170, 8274213169, 7159876817, 7159876816, 7159876815, 7159876820], "tags": {"amenity": "school", "education": "school", "name": "广州市第十八中学", "name:en": "Guangzhou No.18 Middle School"}}, {"type": "way", "id": 780458586, "center": {"lat": 23.1485496, "lon": 113.3452997}, "nodes": [7287803122, 7287803123, 7287803124, 7287803125, 7287803126, 7287803127, 7287803122], "tags": {"amenity": "hospital", "building": "yes", "emergency": "no", "healthcare": "hospital", "name": "广东省第二中医院五山门诊部"}}, {"type": "way", "id": 855003728, "center": {"lat": 23.1201751, "lon": 113.4038831}, "nodes": [7973926010, 7973926011, 7973926012, 7973926013, 7973926014, 7973926015, 7973926016, 7973926017, 7973926018, 7973926019, 7973926020, 7973926021, 7973926022, 7973926010], "tags": {"amenity": "school", "education": "school", "name": "羊城小学"}}, {"type": "way", "id": 858352687, "center": {"lat": 23.1612633, "lon": 113.3479932}, "nodes": [8067848291, 5809450687, 8991691055, 8001716400, 8001716401, 8001716402, 8001716403, 8067848291], "tags": {"amenity": "kindergarten", "barrier": "wall", "education": "kindergarten", "name": "华南农业大学附属幼儿园"}}, {"type": "way", "id": 858600100, "center": {"lat": 23.1328588, "lon": 113.3260354}, "nodes": [8003896432, 8003896433, 8003896434, 8003896435, 8003896436, 10002545785, 10002545792, 10002545786, 8003896437, 8003896432], "tags": {"amenity": "school", "education": "school", "name": "体育东路小学 (北校区)"}}, {"type": "way", "id": 858600111, "center": {"lat": 23.1318848, "lon": 113.3131101}, "nodes": [8003998386, 8003998387, 8003998388, 8003998389, 8003998392, 8003998391, 8003998390, 8003998386], "tags": {"amenity": "hospital", "healthcare": "hospital"}}, {"type": "way", "id": 860062302, "center": {"lat": 23.1263141, "lon": 113.3293874}, "nodes": [8016223004, 8016223005, 8016223006, 8016223007, 8016223004], "tags": {"amenity": "kindergarten", "education": "kindergarten", "name": "金穗幼儿园"}}, {"type": "way", "id": 866634769, "center": {"lat": 23.1145998, "lon": 113.3678677}, "nodes": [8077680599, 8077680600, 8077680601, 8077680602, 8077680603, 8077680604, 8077680599], "tags": {"amenity": "school", "education": "school", "name": "员村小学美林分校"}}, {"type": "way", "id": 910651242, "center": {"lat": 23.1592635, "lon": 113.3322943}, "nodes": [8455779102, 8455779103, 8455779104, 8455779105, 8455779106, 8455779107, 8455779108, 8455779109, 8455779110, 8455779111, 8455779102], "tags": {"amenity": "hospital", "healthcare": "hospital", "name": "东莞庄社区卫生服务站"}}, {"type": "way", "id": 931675694, "center": {"lat": 23.1686612, "lon": 113.3531447}, "nodes": [8637331479, 8637331480, 8637331481, 8637331482, 8637331483, 8637331484, 8637331485, 8637495247, 8637331486, 8637331490, 8637331491, 8637331492, 8637331494, 8637331493, 8637331496, 8637331497, 8637331495, 8637331498, 8637331499, 8951328431, 8951328430, 5726341197, 5726341195, 3722928916, 8637331487, 8637331488, 8637331489, 8637331479], "tags": {"addr:city": "广州市", "addr:district": "天河区", "addr:full": "广州市天河区长兴路338号", "addr:housenumber": "338", "addr:postcode": "510650", "addr:province": "广东省", "addr:street": "长兴路", "alt_name": "伟伦体校", "amenity": "college", "barrier": "wall", "education": "college", "fax": "+86 20 8560 3219", "name": "广州体育职业技术学院", "name:en": "Guangzhou Polytechnic of Sports", "name:zh": "广州体育职业技术学院", "name:zh-Hant": "偉倫體校", "official_name": "广州体育技术学院", "phone": "+86 20 8560 3259", "website": "http://www.gztzy.net/"}}, {"type": "way", "id": 941041625, "center": {"lat": 23.1259609, "lon": 113.3988724}, "nodes": [8715108018, 8715087216, 8715108017, 8715087214, 8715087213, 8715087215, 8715087212, 8715108018], "tags": {"amenity": "school", "education": "school", "grades": "7-9", "name": "广州奥林匹克中学(黄村西路校区)", "name:en": "Guangzhou Olympic Secondary School (West Huangcun Road Campus)", "name:zh": "广州奥林匹克中学(黄村西路校区)", "old_name": "东圃中学初中部"}}, {"type": "way", "id": 942940201, "center": {"lat": 23.1337264, "lon": 113.3149542}, "nodes": [8731554068, 8731554065, 8731554067, 8731554066, 8731554068], "tags": {"amenity": "school", "education": "school", "name": "体育西路小学(西校区)"}}, {"type": "way", "id": 949310027, "center": {"lat": 23.1426651, "lon": 113.3353134}, "nodes": [8788315095, 8788315096, 8788315097, 8788315098, 8788315099, 8788315100, 8788315095], "tags": {"amenity": "school", "education": "school", "name": "龙口西小学(瑞安校区)"}}, {"type": "way", "id": 955288534, "center": {"lat": 23.1426124, "lon": 113.3377427}, "nodes": [8841671775, 8841671776, 8841671777, 8841671778, 8841671775], "tags": {"addr:city": "广州市", "addr:district": "天河区", "addr:housenumber": "622号", "addr:province": "广东省", "addr:street": "天河北路", "amenity": "kindergarten", "check_date": "2026-02-11", "name": "龙口中路幼儿园", "phone": "+86 20 3825 4616", "preschool": "yes"}}, {"type": "way", "id": 991680175, "center": {"lat": 23.1419424, "lon": 113.4326175}, "nodes": [9162437361, 9162437363, 9162437366, 9162437367, 9162437368, 9162437369, 9162437370, 9162437371, 9162437372, 9162437373, 9162437375, 9162437376, 9162437377, 9162437379, 9162437380, 9162437382, 9162437383, 9162437384, 9162437385, 13565975499, 9162437386, 9162437387, 9162437361], "tags": {"amenity": "school", "education": "school", "grades": "7,12", "name": "广州市执信中学(天河校区)", "operator": "何勇"}}, {"type": "way", "id": 993462500, "center": {"lat": 23.1248579, "lon": 113.3237137}, "nodes": [9178253887, 9178253888, 9178253889, 9178253885, 9178253887], "tags": {"amenity": "kindergarten", "education": "kindergarten", "name": "广州佐治亚国际幼儿园"}}, {"type": "way", "id": 997699142, "center": {"lat": 23.1787903, "lon": 113.3398208}, "nodes": [9212139038, 9212139037, 9212139039, 9212139035, 3722954525, 9212139038], "tags": {"amenity": "kindergarten", "barrier": "wall", "name": "元岗幼儿园"}}, {"type": "way", "id": 1022170344, "center": {"lat": 23.1457118, "lon": 113.3464323}, "nodes": [9427320104, 9427320105, 9427320106, 9427320107, 9427320104], "tags": {"amenity": "school", "barrier": "wall", "education": "school", "name": "岭南中英文学校"}}, {"type": "way", "id": 1022170345, "center": {"lat": 23.1453609, "lon": 113.3483993}, "nodes": [9427320108, 9427320109, 9427320110, 9427320111, 9427320108], "tags": {"amenity": "school", "barrier": "wall", "education": "school", "name": "广州市天河区育华学校"}}, {"type": "way", "id": 1052608577, "center": {"lat": 23.1589951, "lon": 113.3627486}, "nodes": [9673632125, 9673632143, 9673632126, 9673632142, 9673632127, 9673632141, 9673632128, 9673632129, 9673632130, 9673632131, 9673632132, 9673632144, 9673632133, 9673632134, 9673632135, 9673632145, 9673632136, 9673632146, 9673632137, 9673632138, 8474433496, 8474433505, 8474433497, 8474433498, 8474433499, 8474433500, 8474433501, 8474433502, 8474433503, 9673632140, 8857392815, 10781186001, 9673632125], "tags": {"amenity": "college", "barrier": "wall", "education": "college", "name": "广东省农业科学院动物科学研究所", "name:zh": "广东省农业科学院动物科学研究所"}}, {"type": "way", "id": 1052918109, "center": {"lat": 23.144612, "lon": 113.3836381}, "nodes": [9676315472, 9676315473, 9676315474, 9676315475, 9676315476, 9676315477, 9676315478, 9676315479, 9676315480, 9676315481, 9676315472], "tags": {"amenity": "hospital", "healthcare": "hospital", "name": "广州医科大学附属中医医院(天河院区)", "name:en": "Guangzhou Hospital of TCM(Tianhe Campus)", "name:zh": "广州医科大学附属中医医院(天河院区)"}}, {"type": "way", "id": 1070839801, "center": {"lat": 23.1627814, "lon": 113.3194821}, "nodes": [9826966373, 9826966374, 9826966375, 5572448839, 5572448838, 9826966376, 9826966377, 9826966378, 9826966379, 9826966380, 9826966373], "tags": {"amenity": "school", "education": "school", "name": "广东省外语艺术职业学院(天平架校区)", "name:en": "Guangdong Teachers College of Foreign Language and Arts (Tianpingjia Campus)", "name:zh": "广东省外语艺术职业学院(天平架校区)", "old_name": "广东省贸易职业技术学校"}}, {"type": "way", "id": 1076853566, "center": {"lat": 23.1762702, "lon": 113.3870638}, "nodes": [9874503917, 9874503918, 9874503919, 9874503920, 9874503921, 9874503922, 9874503923, 9874503924, 9874503925, 9874503926, 3076017433, 3076017135, 9874503927, 9874503917], "tags": {"amenity": "police"}}, {"type": "way", "id": 1080329685, "center": {"lat": 23.1699088, "lon": 113.4077529}, "nodes": [9902308996, 9902308997, 9902308998, 9902308999, 9902308996], "tags": {"amenity": "hospital", "healthcare": "hospital", "name": "蕙心医院"}}, {"type": "way", "id": 1080695777, "center": {"lat": 23.1562052, "lon": 113.3922395}, "nodes": [9905436859, 9905436860, 9905436861, 9905436862, 9905436863, 9905436864, 9905436865, 9905436866, 9905436867, 9905436868, 9905436859], "tags": {"amenity": "school", "education": "school", "name": "沐陂小学"}}, {"type": "way", "id": 1090457514, "center": {"lat": 23.1406166, "lon": 113.3910738}, "nodes": [9988060149, 11875917184, 11875917185, 11875917189, 11875917186, 11875917188, 11875917187, 9988060148, 9988060147, 9988060146, 9988060145, 9988060149], "tags": {"amenity": "school", "education": "school", "grades": "1-9", "name": "广州奥林匹克中学(智谷校区)", "name:en": "Guangzhou Olympic Secondary School (Tianhe Smart Valley Campus)", "name:zh": "广州奥林匹克中学(智谷校区)"}}, {"type": "way", "id": 1099693310, "center": {"lat": 23.1247054, "lon": 113.3625316}, "nodes": [6417850666, 6417850665, 4876293309, 2363220457, 2363220458, 10067170500, 6417850667, 6417850666], "tags": {"amenity": "police", "name": "交警"}}, {"type": "way", "id": 1145192221, "center": {"lat": 23.1919286, "lon": 113.3728864}, "nodes": [10658288505, 10658288506, 10658288507, 10658288508, 10658288509, 10658288510, 10658288505], "tags": {"amenity": "college", "name": "广东生态工程职业学院南区"}}, {"type": "way", "id": 1147537337, "center": {"lat": 23.1639198, "lon": 113.3504364}, "nodes": [10677705871, 10677705872, 10677705873, 10677705874, 10677705881, 10677705882, 10677705883, 10677705871], "tags": {"amenity": "school", "barrier": "wall", "education": "school", "name": "华南农业大学附属小学"}}, {"type": "way", "id": 1158467095, "center": {"lat": 23.1319109, "lon": 113.3977172}, "nodes": [10773533370, 10773533371, 10773533372, 10773533373, 10773533370], "tags": {"amenity": "school", "education": "school", "name": "旭景小学"}}, {"type": "way", "id": 1167474703, "center": {"lat": 23.129159, "lon": 113.3945663}, "nodes": [10605637044, 10605637043, 10857399761, 10857399762, 10605637045, 10605637044], "tags": {"amenity": "school", "education": "school", "name": "新元小学"}}, {"type": "way", "id": 1170447537, "center": {"lat": 23.147345, "lon": 113.374961}, "nodes": [10880095710, 10880095711, 10880095712, 10880095713, 10880095710], "tags": {"amenity": "school", "education": "school", "name": "棠福学校"}}, {"type": "way", "id": 1175887707, "center": {"lat": 23.1468306, "lon": 113.33468}, "nodes": [10926167778, 10926167779, 10926167780, 10926167781, 10926167778], "tags": {"addr:city": "广州市", "addr:district": "天河区", "addr:province": "广东省", "addr:street": "石牌街道龙口东路", "amenity": "school", "education": "school", "name": "龙口西小学(天阳校区)", "name:en": "Longkouxi Primary School (Taiyang Campus)", "name:zh": "龙口西小学(天阳校区)", "name:zh-Hans": "Guangchang"}}, {"type": "way", "id": 1175887727, "center": {"lat": 23.1451321, "lon": 113.3340836}, "nodes": [10926170659, 10926170660, 10926170661, 10926170662, 10926170659], "tags": {"amenity": "kindergarten", "education": "kindergarten", "name": "广州市幼儿师范学校附属幼儿园北园", "name:zh-Hans": "广州市幼儿师范学校附属幼儿园北园", "name:zh-Hant": "廣州市幼兒師範學校附屬幼兒園北園"}}, {"type": "way", "id": 1226716611, "center": {"lat": 23.1392802, "lon": 113.3702377}, "nodes": [11375362168, 11375391069, 11375391070, 11375391071, 11375391072, 11375391073, 11375362168], "tags": {"amenity": "school", "education": "school", "name": "京粤实验小学"}}, {"type": "way", "id": 1246880610, "center": {"lat": 23.1355807, "lon": 113.3637068}, "nodes": [11591818500, 11591818501, 11591818502, 11591818503, 11591818504, 11591818505, 11591818500], "tags": {"amenity": "police"}}, {"type": "way", "id": 1257154393, "center": {"lat": 23.1274628, "lon": 113.3950126}, "nodes": [11687819368, 12047307424, 11687845269, 11687845273, 11687845270, 11687845271, 11687845272, 11687819368], "tags": {"amenity": "hospital", "healthcare": "hospital", "name": "暨南大学附属第一医院(东圃分院)"}}, {"type": "way", "id": 1288222584, "center": {"lat": 23.1265139, "lon": 113.3363187}, "nodes": [11946784236, 11946784237, 11946784238, 11946784239, 11946784236], "tags": {"amenity": "school", "education": "school", "name": "广州市天河区第一实验小学"}}, {"type": "way", "id": 1288223512, "center": {"lat": 23.1172612, "lon": 113.3320478}, "nodes": [11946731827, 11946731828, 11946731829, 11946731830, 11946731831, 11946731827], "tags": {"amenity": "kindergarten", "education": "kindergarten", "name": "猎德幼儿园"}}, {"type": "way", "id": 1290850324, "center": {"lat": 23.1431637, "lon": 113.3570988}, "nodes": [11968427568, 11968460369, 11968460370, 11968460371, 11968427568], "tags": {"amenity": "school", "education": "school", "grades": "1-6", "name": "华景小学（南校区）"}}, {"type": "way", "id": 1292286550, "center": {"lat": 23.1135957, "lon": 113.3564553}, "nodes": [11980187996, 11980187997, 11980187998, 11980187999, 11980187996], "tags": {"amenity": "school", "education": "school", "name": "志才小学"}}, {"type": "way", "id": 1300680945, "center": {"lat": 23.1299948, "lon": 113.3907631}, "nodes": [12047307316, 12047307317, 12047307318, 12047307319, 12047307316], "tags": {"amenity": "school", "education": "school", "name": "培艺学校"}}, {"type": "way", "id": 1300680967, "center": {"lat": 23.1300705, "lon": 113.3941011}, "nodes": [12047307420, 12047307421, 12047307422, 12047307423, 12047307420], "tags": {"amenity": "hospital", "healthcare": "hospital", "name": "暨南大学附属第一医院(东圃分院)"}}, {"type": "way", "id": 1302998826, "center": {"lat": 23.15879, "lon": 113.3293741}, "nodes": [12067457204, 12067457205, 12067457206, 12067457207, 12067457204], "tags": {"amenity": "school", "education": "school", "name": "东方小学"}}, {"type": "way", "id": 1304263731, "center": {"lat": 23.1457199, "lon": 113.4211393}, "nodes": [12078443856, 12078443857, 12078443858, 12078443859, 12078443856], "tags": {"amenity": "school", "education": "school", "name": "奥体东小学"}}, {"type": "way", "id": 1307657811, "center": {"lat": 23.1543041, "lon": 113.3293603}, "nodes": [12109775728, 12109775729, 12109775730, 12109775731, 12109775732, 12109775733, 12109775734, 12109775735, 12109775728], "tags": {"addr:city": "广州市", "addr:street": "东莞庄路", "amenity": "school", "education": "school", "name": "五一小学"}}, {"type": "way", "id": 1313653478, "center": {"lat": 23.1148967, "lon": 113.3495276}, "nodes": [12159286234, 12159286235, 12159286236, 12159286237, 12159286234], "tags": {"amenity": "school", "building:levels": "4", "education": "school", "name": "新昌学校"}}, {"type": "way", "id": 1316626260, "center": {"lat": 23.1197728, "lon": 113.35435}, "nodes": [12185801001, 12185801002, 12185801003, 12185801004, 12185801005, 12185801001], "tags": {"amenity": "school", "education": "school", "name": "广州市第一一三中学(乐学校区)"}}, {"type": "way", "id": 1322965238, "center": {"lat": 23.1966066, "lon": 113.3900884}, "nodes": [12241912475, 12241912476, 12241912477, 12241912478, 12241912483, 12241912479, 12241912480, 12241912481, 12241912482, 12241912475], "tags": {"amenity": "school", "education": "school", "name": "柯木塱小学"}}, {"type": "way", "id": 1322967070, "center": {"lat": 23.1962128, "lon": 113.3938334}, "nodes": [12241910636, 12241910637, 12241910638, 12241910639, 12241910640, 12241910641, 12241910642, 12241910643, 12241910636], "tags": {"amenity": "hospital", "healthcare": "hospital", "healthcare:speciality": "general", "name": "柯木塱医院"}}, {"type": "way", "id": 1322967451, "center": {"lat": 23.1961326, "lon": 113.3936739}, "nodes": [12241935240, 12241935241, 12241935242, 12241912468, 12241935240], "tags": {"amenity": "clinic", "building": "yes", "healthcare": "clinic", "healthcare:speciality": "stomatology", "name": "天河区凤凰街社区卫生服务中心"}}, {"type": "way", "id": 1393467701, "center": {"lat": 23.1188579, "lon": 113.3918888}, "nodes": [12898840169, 12898840179, 12898840178, 12898840177, 12898840176, 12898840175, 12898857475, 12898840174, 12898840173, 12898840172, 12898840171, 12898840170, 12898840169], "tags": {"amenity": "school", "education": "school"}}, {"type": "way", "id": 1416018674, "center": {"lat": 23.1385547, "lon": 113.4103386}, "nodes": [13012919758, 13012919759, 13012919760, 13012919761, 13012919762, 13012919763, 13012919764, 13012919774, 13012919765, 13012919766, 13012919767, 13012919768, 13012919769, 13012919772, 13012919773, 13012919771, 13012919770, 13012919758], "tags": {"amenity": "school", "education": "school", "name": "中国人民警察大学（广州校区）", "wikidata": "Q10892867", "wikipedia": "zh:中国人民警察大学广州校区"}}, {"type": "way", "id": 1460650017, "center": {"lat": 23.1315781, "lon": 113.4337632}, "nodes": [13396624270, 13396624271, 13396624272, 13396624273, 13396624270], "tags": {"amenity": "school", "education": "school", "name": "天河区体育东教育集团均和小学"}}, {"type": "node", "id": 2470238664, "lat": 23.1507468, "lon": 113.24331, "tags": {"amenity": "hospital", "healthcare": "hospital", "name": "广东省妇幼保健院", "name:en": "Hospital Maternal and Child Health"}}, {"type": "node", "id": 2981419399, "lat": 23.1496068, "lon": 113.2736301, "tags": {"amenity": "police", "name": "登峰街派出所"}}, {"type": "node", "id": 3008322734, "lat": 23.1303377, "lon": 113.2758279, "tags": {"amenity": "hospital", "healthcare": "hospital", "name": "越秀区妇幼保健院"}}, {"type": "node", "id": 3009756334, "lat": 23.125367, "lon": 113.2851043, "tags": {"amenity": "school", "education": "school", "name": "中山二路小学"}}, {"type": "node", "id": 3019556435, "lat": 23.1369338, "lon": 113.2790861, "tags": {"amenity": "police", "name": "建设派出所"}}, {"type": "node", "id": 3023762735, "lat": 23.1259261, "lon": 113.2792624, "tags": {"amenity": "kindergarten", "education": "kindergarten", "name": "省体育局幼儿园", "name:zh": "省体育局幼儿园"}}, {"type": "node", "id": 3023837935, "lat": 23.1247725, "lon": 113.2829772, "tags": {"amenity": "police", "name": "广州市公安局越秀区分局综合办证大厅", "name:zh": "广州市公安局越秀区分局综合办证大厅"}}, {"type": "node", "id": 3023858033, "lat": 23.1250145, "lon": 113.2828692, "tags": {"amenity": "police", "name": "大东派出所", "name:zh": "大东派出所"}}, {"type": "node", "id": 3023868733, "lat": 23.1271804, "lon": 113.2814934, "tags": {"addr:housenumber": "96", "addr:street": "东川路", "amenity": "hospital", "healthcare": "hospital", "name": "广东省心血管病医院", "operator": "广东省人民医院"}}, {"type": "node", "id": 3037143237, "lat": 23.1344902, "lon": 113.2527731, "tags": {"amenity": "hospital", "emergency": "yes", "healthcare": "hospital", "healthcare:speciality": "emergency", "name": "广州临床重症救治中心", "name:zh": "广州临床重症救治中心", "operator": "广州市第一人民医院"}}, {"type": "node", "id": 3040301764, "lat": 23.1280951, "lon": 113.2852164, "tags": {"amenity": "clinic", "emergency": "no", "healthcare": "clinic", "name": "爱尔眼科"}}, {"type": "node", "id": 3050202464, "lat": 23.1349717, "lon": 113.273614, "tags": {"amenity": "college", "education": "college", "name": "广东社会科学大学"}}, {"type": "node", "id": 3053338342, "lat": 23.1266518, "lon": 113.2881558, "tags": {"amenity": "hospital", "healthcare": "hospital", "name": "中山大学附属第一医院生殖医学中心"}}, {"type": "node", "id": 3053344435, "lat": 23.1332838, "lon": 113.2876343, "tags": {"amenity": "hospital", "healthcare": "hospital", "name": "家庭医生整形美容医院"}}, {"type": "node", "id": 3053344436, "lat": 23.1332693, "lon": 113.2870806, "tags": {"amenity": "hospital", "healthcare": "hospital", "name": "家庭医生口腔专科"}}, {"type": "node", "id": 3055052633, "lat": 23.1294108, "lon": 113.2679447, "tags": {"amenity": "college", "education": "college", "name": "广州市广播电视大学"}}, {"type": "node", "id": 3088658265, "lat": 23.1325869, "lon": 113.2640021, "tags": {"amenity": "school", "education": "school", "name": "广中路小学"}}, {"type": "node", "id": 3248806961, "lat": 23.1263866, "lon": 113.2814074, "tags": {"amenity": "school", "education": "school", "name": "广州工程职业学校", "name:zh": "广州工程职业学校"}}, {"type": "node", "id": 3349359510, "lat": 23.1303958, "lon": 113.2876654, "tags": {"amenity": "kindergarten", "education": "kindergarten", "name": "中山大学幼儿园"}}, {"type": "node", "id": 3353423606, "lat": 23.1281462, "lon": 113.2702116, "tags": {"amenity": "hospital", "healthcare": "hospital", "healthcare:speciality": "proctology", "name": "广州东大肛肠医院"}}, {"type": "node", "id": 3369853992, "lat": 23.1440424, "lon": 113.2805099, "tags": {"amenity": "police", "name": "华乐派出所"}}, {"type": "node", "id": 3934055532, "lat": 23.1264852, "lon": 113.2595491, "tags": {"amenity": "police", "name": "广州市公安局"}}, {"type": "node", "id": 4275251390, "lat": 23.147744, "lon": 113.2717216, "tags": {"amenity": "clinic", "healthcare": "clinic", "name": "广东省中医院下塘门诊部"}}, {"type": "node", "id": 4568300723, "lat": 23.1279972, "lon": 113.2707011, "tags": {"amenity": "hospital", "emergency": "no", "healthcare": "hospital", "name": "大塘街社区卫生服务中心"}}, {"type": "node", "id": 4853163771, "lat": 23.122699, "lon": 113.2728152, "tags": {"amenity": "hospital", "healthcare": "hospital", "name": "越秀区第二中医医院"}}, {"type": "node", "id": 4863350774, "lat": 23.1251747, "lon": 113.2933483, "tags": {"amenity": "kindergarten", "education": "kindergarten", "level": "0", "name": "东方红幼儿园"}}, {"type": "node", "id": 5029791558, "lat": 23.1334163, "lon": 113.2687409, "tags": {"amenity": "police"}}, {"type": "node", "id": 5029894803, "lat": 23.1310019, "lon": 113.2668142, "tags": {"amenity": "police", "name": "市刑警队"}}, {"type": "node", "id": 5055059855, "lat": 23.1184726, "lon": 113.30734, "tags": {"amenity": "police", "name": "越秀区办案中心", "name:zh": "越秀区办案中心"}}, {"type": "node", "id": 5820197768, "lat": 23.1339784, "lon": 113.2527753, "tags": {"amenity": "police", "name": "警务室", "opening_hours": "24/7"}}, {"type": "node", "id": 5820197769, "lat": 23.1338983, "lon": 113.2525257, "tags": {"amenity": "hospital", "healthcare": "hospital", "healthcare:speciality": "general", "name": "英东门诊医疗中心", "name:en": "Ying-tung Outpatient Treatment Center", "operator": "广州市第一人民医院"}}, {"type": "node", "id": 5820197808, "lat": 23.1338381, "lon": 113.2517787, "tags": {"amenity": "hospital", "healthcare": "hospital", "healthcare:speciality": "gastroenterology", "name": "广州消化疾病中心", "name:en": "Guangzhou Digestive Diseases Center", "operator": "广州市第一人民医院"}}, {"type": "node", "id": 5825694931, "lat": 23.1363104, "lon": 113.2547204, "tags": {"amenity": "police"}}, {"type": "node", "id": 6198792446, "lat": 23.1231883, "lon": 113.2604972, "tags": {"amenity": "police", "name": "北京派出所"}}, {"type": "node", "id": 6205059064, "lat": 23.1582902, "lon": 113.2537653, "tags": {"amenity": "college", "name": "广东省社会主义学院"}}, {"type": "node", "id": 6259326899, "lat": 23.1242187, "lon": 113.2678243, "tags": {"amenity": "police", "name": "公安大院"}}, {"type": "node", "id": 6342990632, "lat": 23.13089, "lon": 113.2577643, "tags": {"amenity": "police"}}, {"type": "node", "id": 6342991334, "lat": 23.1378275, "lon": 113.2503967, "tags": {"amenity": "clinic", "healthcare": "clinic"}}, {"type": "node", "id": 6342991335, "lat": 23.1386464, "lon": 113.2512078, "tags": {"amenity": "clinic", "healthcare": "clinic"}}, {"type": "node", "id": 6343005694, "lat": 23.1312763, "lon": 113.2537427, "tags": {"amenity": "kindergarten", "education": "kindergarten"}}, {"type": "node", "id": 6343064615, "lat": 23.1519177, "lon": 113.28288, "tags": {"amenity": "kindergarten", "education": "kindergarten", "name": "爱尔堡幼儿园"}}, {"type": "node", "id": 6351673914, "lat": 23.1222235, "lon": 113.2506427, "tags": {"amenity": "clinic", "healthcare": "clinic", "name": "越秀区光塔街社区卫生服务中心"}}, {"type": "node", "id": 6351687010, "lat": 23.1216097, "lon": 113.2508024, "tags": {"amenity": "police", "name": "光塔派出所"}}, {"type": "node", "id": 6574225849, "lat": 23.1371647, "lon": 113.2826172, "tags": {"amenity": "kindergarten", "education": "kindergarten", "name": "广州市珠江实业幼儿园"}}, {"type": "node", "id": 6574303051, "lat": 23.1374357, "lon": 113.2833211, "tags": {"amenity": "clinic", "healthcare": "clinic", "name": "南方医科大学第三附属医院第二门诊部"}}, {"type": "node", "id": 6574303266, "lat": 23.1392055, "lon": 113.2883685, "tags": {"amenity": "hospital", "healthcare": "hospital", "name": "广州市越秀区黄花岗街道社区卫生服务中心"}}, {"type": "node", "id": 6579992390, "lat": 23.1334127, "lon": 113.2701411, "tags": {"amenity": "police"}}, {"type": "node", "id": 6585597007, "lat": 23.1365774, "lon": 113.2819672, "tags": {"amenity": "clinic", "healthcare": "clinic", "name": "广州钜贤口腔"}},