{"elements": [{"type": "node", "id": 892269599, "lat": 23.1438922, "lon": 113.3301242, "tags": {"amenity": "cafe", "branch": "北龙口店", "brand": "星巴克", "brand:en": "Starbucks", "brand:wikidata": "Q37158", "brand:wikipedia": "zh:星巴克", "brand:zh": "星巴克", "cuisine": "coffee_shop", "name": "星巴克", "name:en": "Starbucks", "name:zh": "星巴克", "official_name": "Starbucks Coffee", "takeaway": "yes"}}, {"type": "node", "id": 892269604, "lat": 23.1436949, "lon": 113.3304139, "tags": {"brand": "喜士多", "brand:en": "C-Store", "brand:wikidata": "Q60992580", "brand:zh": "喜士多", "name": "喜士多", "name:en": "C-Store", "name:zh": "喜士多", "shop": "convenience"}}, {"type": "node", "id": 892269608, "lat": 23.1434878, "lon": 113.3305641, "tags": {"brand": "7-Eleven", "brand:wikidata": "Q259340", "name": "7-Eleven", "shop": "convenience"}}, {"type": "node", "id": 892269619, "lat": 23.1349259, "lon": 113.3158265, "tags": {"amenity": "fast_food", "branch": "今日广场店", "brand": "麦当劳", "brand:en": "McDonald's", "brand:wikidata": "Q38076", "brand:wikipedia": "zh:麦当劳", "brand:zh": "麦当劳", "brand:zh-Hans": "麦当劳", "cuisine": "burger", "name": "麦当劳", "name:en": "McDonald's", "name:zh": "麦当劳", "name:zh-Hans": "麦当劳", "takeaway": "yes"}}, {"type": "node", "id": 892269766, "lat": 23.1354361, "lon": 113.3294517, "tags": {"amenity": "fast_food", "brand": "麦当劳", "brand:en": "McDonald's", "brand:wikidata": "Q38076", "brand:wikipedia": "zh:麦当劳", "brand:zh": "麦当劳", "brand:zh-Hans": "麦当劳", "cuisine": "burger", "delivery": "yes", "name": "麦当劳", "name:en": "McDonald's", "name:zh": "麦当劳", "name:zh-Hans": "麦当劳", "takeaway": "yes"}}, {"type": "node", "id": 892269778, "lat": 23.1365764, "lon": 113.3328664, "tags": {"amenity": "fast_food", "brand": "麦当劳", "brand:en": "McDonald's", "brand:wikidata": "Q38076", "brand:wikipedia": "zh:麦当劳", "brand:zh": "麦当劳", "brand:zh-Hans": "麦当劳", "cuisine": "burger", "name": "麦当劳", "name:en": "McDonald's", "name:zh": "麦当劳", "name:zh-Hans": "麦当劳", "takeaway": "yes"}}, {"type": "node", "id": 892269793, "lat": 23.1443461, "lon": 113.3296951, "tags": {"amenity": "fast_food", "branch": "金田餐厅", "brand": "麦当劳", "brand:en": "McDonald's", "brand:wikidata": "Q38076", "brand:wikipedia": "zh:麦当劳", "brand:zh": "麦当劳", "brand:zh-Hans": "麦当劳", "cuisine": "burger", "name": "麦当劳", "name:en": "McDonald's", "name:zh": "麦当劳", "name:zh-Hans": "麦当劳", "takeaway": "yes"}}, {"type": "node", "id": 892269932, "lat": 23.1412425, "lon": 113.3275869, "tags": {"brand": "喜士多", "brand:en": "C-Store", "brand:wikidata": "Q60992580", "brand:zh": "喜士多", "name": "喜士多", "name:en": "C-Store", "name:zh": "喜士多", "opening_hours": "24/7", "shop": "convenience"}}, {"type": "node", "id": 892269937, "lat": 23.1402526, "lon": 113.3262925, "tags": {"brand": "7-Eleven", "brand:wikidata": "Q259340", "name": "7-Eleven", "shop": "convenience"}}, {"type": "node", "id": 892269942, "lat": 23.1438005, "lon": 113.3256342, "tags": {"brand": "7-Eleven", "brand:wikidata": "Q259340", "name": "7-Eleven", "shop": "convenience", "wheelchair": "yes"}}, {"type": "node", "id": 892269947, "lat": 23.1409099, "lon": 113.3238854, "tags": {"brand": "全家", "brand:en": "FamilyMart", "brand:wikidata": "Q11247682", "brand:zh": "全家", "name": "全家", "name:en": "FamilyMart", "name:zh": "全家", "shop": "convenience", "wheelchair": "limited"}}, {"type": "node", "id": 916275245, "lat": 23.1366632, "lon": 113.33315, "tags": {"amenity": "fast_food", "brand": "肯德基", "brand:en": "KFC", "brand:wikidata": "Q524757", "brand:wikipedia": "zh:肯德基", "brand:zh": "肯德基", "cuisine": "chicken", "name": "肯德基", "name:en": "KFC", "name:zh": "肯德基", "takeaway": "yes"}}, {"type": "node", "id": 1238291919, "lat": 23.1621588, "lon": 113.4067049, "tags": {"name": "百家通购物中心", "name:zh": "百家通购物中心", "shop": "convenience"}}, {"type": "node", "id": 1393210697, "lat": 23.14839, "lon": 113.335488, "tags": {"amenity": "restaurant", "name": "黄鳝", "name:zh": "黄鳝"}}, {"type": "node", "id": 1694772078, "lat": 23.1442862, "lon": 113.3376594, "tags": {"addr:city": "广州市", "addr:district": "天河区", "addr:housenumber": "711~721", "addr:province": "广东省", "addr:street": "天河北路", "name": "曜一城", "name:en": "IVONE PLAZA", "opening_hours": "Mo-Su 9:00-22:00", "payment:alipay": "yes", "payment:cash": "yes", "payment:credit_cards": "yes", "payment:wechat": "yes", "shop": "mall"}}, {"type": "node", "id": 1786140727, "lat": 23.1403769, "lon": 113.3504516, "tags": {"name": "西亚兴安超市", "name:zh": "西亚兴安超市", "shop": "supermarket"}}, {"type": "node", "id": 1786140751, "lat": 23.1417406, "lon": 113.3484247, "tags": {"amenity": "fast_food", "branch": "华师沁园店", "brand": "肯德基", "brand:en": "KFC", "brand:wikidata": "Q524757", "brand:zh": "肯德基", "cuisine": "chicken", "name": "肯德基", "name:en": "KFC", "name:zh": "肯德基", "takeaway": "yes"}}, {"type": "node", "id": 1786140755, "lat": 23.141711, "lon": 113.3482311, "tags": {"shop": "supermarket"}}, {"type": "node", "id": 1786140762, "lat": 23.1417021, "lon": 113.3476211, "tags": {"shop": "supermarket"}}, {"type": "node", "id": 1786140782, "lat": 23.1416824, "lon": 113.3474173, "tags": {"amenity": "cafe", "branch": "华南师范大学店", "brand": "瑞幸咖啡", "brand:en": "Luckin Coffee", "brand:wikidata": "Q56811344", "brand:zh": "瑞幸咖啡", "cuisine": "coffee_shop", "name": "瑞幸咖啡", "name:en": "Luckin Coffee", "name:zh": "瑞幸咖啡", "takeaway": "yes"}}, {"type": "node", "id": 1786140787, "lat": 23.1417088, "lon": 113.3514226, "tags": {"name": "华宏家润生活超市", "name:zh": "华宏家润生活超市", "shop": "supermarket"}}, {"type": "node", "id": 2049473663, "lat": 23.1462643, "lon": 113.3261365, "tags": {"amenity": "restaurant", "brand": "小肥羊", "brand:en": "LITTLE SHEEP", "brand:wikidata": "Q5976467", "brand:zh": "小肥羊", "cuisine": "chinese;hotpot", "name": "小肥羊", "name:en": "LITTLE SHEEP", "name:zh": "小肥羊"}}, {"type": "node", "id": 2697112602, "lat": 23.1202903, "lon": 113.318094, "tags": {"addr:city": "广州市", "addr:district": "天河区", "addr:housenumber": "5号", "addr:postcode": "510623", "addr:province": "广东省", "addr:street": "珠江西路", "amenity": "restaurant", "capacity": "132 indoor 16 private dining", "cuisine": "italian", "floor": "72", "name": "意珍", "name:it": "Caffe Mondo", "name:zh": "意珍", "opening_hours": "06:30-10:30 open \"Breakfast\", 11:30-14:30 open \"Lunch\", 17:30-22:00 \"Dinner\"", "phone": "+86 20 8883 3888", "website": "https://www.fourseasons.com/guangzhou/dining/restaurants/caffe_mondo/"}}, {"type": "node", "id": 2697112603, "lat": 23.1202114, "lon": 113.318094, "tags": {"addr:city": "广州市", "addr:district": "天河区", "addr:housenumber": "5号", "addr:postcode": "510623", "addr:province": "广东省", "addr:street": "珠江西路", "amenity": "restaurant", "capacity": "90 Indoor 10 Private Dining", "cuisine": "japanese", "floor": "72", "name": "云居", "name:en": "Kumoi", "name:zh": "云居", "opening_hours": "11:30-14:30,17:30-22:30", "phone": "+86 20 8883 3888", "website": "https://www.fourseasons.com/guangzhou/dining/restaurants/kumoi/"}}, {"type": "node", "id": 2697112609, "lat": 23.1200055, "lon": 113.3179945, "tags": {"addr:city": "广州市", "addr:district": "天河区", "addr:housenumber": "5号", "addr:postcode": "510623", "addr:province": "广东省", "addr:street": "珠江西路", "amenity": "restaurant", "capacity": "Total 174, Private 80", "cuisine": "chinese/cantonese", "floor": "71", "name": "愉悦轩", "name:en": "YU YUE HEEN", "opening_hours": "11:30-14:30,17:30-22:30", "phone": "+86 20 8883 3888", "website": "https://www.fourseasons.com/guangzhou/dining/restaurants/yu_yue_heen/", "wheelchair": "yes"}}, {"type": "node", "id": 2697112616, "lat": 23.1203668, "lon": 113.3180967, "tags": {"addr:city": "广州市", "addr:district": "天河区", "addr:housenumber": "5号", "addr:postcode": "510623", "addr:province": "广东省", "addr:street": "珠江西路", "amenity": "restaurant", "capacity": "102", "cuisine": "seafood", "floor": "100", "name": "佰鲜汇", "name:en": "Catch", "name:zh": "佰鲜汇", "opening_hours": "18:00-22:00", "phone": "+86 20 8883 3888", "website": "https://www.fourseasons.com/guangzhou/dining/restaurants/catch/"}}, {"type": "node", "id": 3036646236, "lat": 23.1200731, "lon": 113.3127879, "tags": {"addr:city": "广州市", "addr:district": "天河区", "addr:housenumber": "48", "addr:province": "广东省", "addr:street": "华利路", "alt_name": "星巴克", "amenity": "cafe", "branch": "保利香槟花园店", "brand": "星巴克", "brand:en": "Starbucks", "brand:wikidata": "Q37158", "brand:wikipedia": "zh:星巴克", "brand:zh": "星巴克", "cuisine": "coffee_shop", "name": "星巴克", "name:en": "Starbucks", "name:zh": "星巴克", "official_name": "Starbucks Coffee", "opening_hours": "Mo 07:30-21:20; Tu-Fr 06:30-21:20; Sa 07:30-21:20; Su 06:30-21:20", "phone": "+86 20 3837 3501", "takeaway": "yes"}}, {"type": "node", "id": 3036646435, "lat": 23.1201283, "lon": 113.3113211, "tags": {"name": "喜市多", "shop": "convenience"}}, {"type": "node", "id": 3036646436, "lat": 23.12013, "lon": 113.3117133, "tags": {"amenity": "fast_food", "brand": "赛百味", "brand:en": "Subway", "brand:wikidata": "Q244457", "brand:wikipedia": "zh:赛百味", "brand:zh": "赛百味", "cuisine": "sandwich", "name": "赛百味", "name:en": "Subway", "name:zh": "赛百味", "takeaway": "yes"}}, {"type": "node", "id": 3036646638, "lat": 23.1205172, "lon": 113.313684, "tags": {"brand": "全家", "brand:en": "FamilyMart", "brand:wikidata": "Q11247682", "brand:wikipedia": "zh:FamilyMart", "brand:zh": "全家", "name": "全家", "name:en": "FamilyMart", "name:zh": "全家", "shop": "convenience", "wheelchair": "yes"}}, {"type": "node", "id": 3106339128, "lat": 23.1446672, "lon": 113.3315676, "tags": {"name": "万家百货", "shop": "supermarket"}}, {"type": "node", "id": 3106341130, "lat": 23.1441975, "lon": 113.3346857, "tags": {"addr:city": "广州市", "addr:district": "天河区", "addr:province": "广东省", "addr:street": "龙口东路", "amenity": "restaurant", "brand": "必胜客", "brand:en": "Pizza Hut", "brand:wikidata": "Q191615", "brand:zh": "必胜客", "cuisine": "pizza", "delivery": "yes", "drive_through": "no", "name": "必胜客", "name:en": "Pizza Hut", "name:zh": "必胜客", "takeaway": "yes"}}, {"type": "node", "id": 3191151022, "lat": 23.1130476, "lon": 113.3624718, "tags": {"addr:city": "广州市", "addr:housenumber": "红砖厂创意园南门右侧", "addr:street": "临江大道", "amenity": "restaurant", "name": "鹅公村", "name:zh": "鹅公村"}}, {"type": "node", "id": 3213479561, "lat": 23.1575804, "lon": 113.3396671, "tags": {"amenity": "cafe", "name": "校园咖啡", "name:zh": "校园咖啡"}}, {"type": "node", "id": 3262643367, "lat": 23.1316749, "lon": 113.3254713, "tags": {"amenity": "restaurant", "microbrewery": "no", "name": "椒堂米粉", "name:zh": "椒堂米粉"}}, {"type": "node", "id": 3327992609, "lat": 23.1444851, "lon": 113.3346943, "tags": {"amenity": "fast_food", "brand": "肯德基", "brand:en": "KFC", "brand:wikidata": "Q524757", "brand:wikipedia": "en:KFC", "brand:zh": "肯德基", "cuisine": "chicken", "drive_through": "no", "name": "肯德基", "name:en": "KFC", "name:zh": "肯德基", "takeaway": "yes"}}, {"type": "node", "id": 3327995593, "lat": 23.1445413, "lon": 113.3339962, "tags": {"amenity": "fast_food", "brand": "真功夫", "brand:en": "Kungfu", "brand:wikidata": "Q15909765", "brand:zh": "真功夫", "cuisine": "chinese", "name": "真功夫", "name:en": "Kungfu", "name:zh": "真功夫", "takeaway": "yes"}}, {"type": "node", "id": 3412255894, "lat": 23.1391878, "lon": 113.3346309, "tags": {"brand": "美宜佳", "brand:en": "Meiyijia", "brand:wikidata": "Q55719551", "brand:zh": "美宜佳", "name": "美宜佳", "name:en": "Meiyijia", "name:zh": "美宜佳", "shop": "convenience"}}, {"type": "node", "id": 3645923094, "lat": 23.1317877, "lon": 113.3165907, "tags": {"amenity": "restaurant", "cuisine": "chinese", "name": "真过瘾新疆大盘鸡", "name:zh": "真过瘾新疆大盘鸡"}}, {"type": "node", "id": 3698416161, "lat": 23.1539523, "lon": 113.3787855, "tags": {"name": "易捷 Easy Joy", "name:en": "Easy Joy", "name:zh": "易捷 Easy Joy", "shop": "convenience"}}, {"type": "node", "id": 3698416201, "lat": 23.1529685, "lon": 113.379146, "tags": {"name": "易捷 Easy Joy", "name:en": "Easy Joy", "name:zh": "易捷 Easy Joy", "shop": "convenience"}}, {"type": "node", "id": 3699770993, "lat": 23.1572866, "lon": 113.3451393, "tags": {"amenity": "restaurant", "diet:halal": "yes", "name": "清真饭堂", "name:zh": "清真饭堂"}}, {"type": "node", "id": 3790036459, "lat": 23.1201376, "lon": 113.3115108, "tags": {"amenity": "restaurant", "cuisine": "burger", "name": "Gail's"}}, {"type": "node", "id": 4041605116, "lat": 23.1255337, "lon": 113.3760152, "tags": {"amenity": "restaurant", "name": "潮江春", "name:zh": "潮江春"}}, {"type": "node", "id": 4041605131, "lat": 23.1258866, "lon": 113.3759852, "tags": {"amenity": "restaurant", "cuisine": "dumplings", "name": "龙江咱家水饺东北菜", "name:zh": "龙江咱家水饺东北菜"}}, {"type": "node", "id": 4041605132, "lat": 23.1262605, "lon": 113.3759689, "tags": {"amenity": "restaurant", "name": "二哥烤羊腿羊排烤全羊", "name:zh": "二哥烤羊腿羊排烤全羊"}}, {"type": "node", "id": 4041777506, "lat": 23.12692, "lon": 113.3762862, "tags": {"amenity": "restaurant", "name": "大圣客", "name:zh": "大圣客"}}, {"type": "node", "id": 4041777507, "lat": 23.1266226, "lon": 113.3759775, "tags": {"amenity": "restaurant", "name": "湘味楼", "name:zh": "湘味楼"}}, {"type": "node", "id": 4260130608, "lat": 23.1263627, "lon": 113.3385937, "tags": {"brand": "MaxValu", "brand:wikidata": "Q11340427", "brand:wikipedia": "en:MaxValu", "name": "MaxValu", "name:en": "MaxValu", "phone": "+86 20 3726 0822", "shop": "supermarket", "website": "https://www.maxvalu-gz.com"}}, {"type": "node", "id": 4361016374, "lat": 23.1421236, "lon": 113.3893234, "tags": {"brand": "美宜佳", "brand:en": "Meiyijia", "brand:wikidata": "Q55719551", "brand:zh": "美宜佳", "name": "美宜佳", "name:en": "Meiyijia", "name:zh": "美宜佳", "shop": "convenience"}}, {"type": "node", "id": 4366364891, "lat": 23.1204771, "lon": 113.3788064, "tags": {"amenity": "restaurant", "name": "金河半岛餐厅"}}, {"type": "node", "id": 4367416189, "lat": 23.1262839, "lon": 113.3762506, "tags": {"amenity": "restaurant", "name": "虾笼镇", "name:zh": "虾笼镇"}}, {"type": "node", "id": 4369419296, "lat": 23.1385773, "lon": 113.3159341, "tags": {"brand": "全家", "brand:en": "FamilyMart", "brand:wikidata": "Q11247682", "brand:wikipedia": "en:FamilyMart", "brand:zh": "全家", "name": "全家", "name:en": "FamilyMart", "name:zh": "全家", "operator": "全家便利商店股份有限公司", "shop": "convenience"}}, {"type": "node", "id": 4369430491, "lat": 23.1345982, "lon": 113.3172578, "tags": {"addr:city": "广州市", "addr:district": "天河区", "addr:housenumber": "208号", "addr:province": "广东省", "addr:street": "天河路", "brand": "永旺", "brand:en": "AEON", "brand:wikidata": "Q271413", "brand:wikipedia": "zh:永旺", "brand:zh": "永旺", "level": "-1", "name": "永旺", "name:en": "AEON", "name:zh": "永旺", "shop": "supermarket"}}, {"type": "node", "id": 4369504014, "lat": 23.1245626, "lon": 113.3830223, "tags": {"name": "万家超市", "shop": "supermarket"}}, {"type": "node", "id": 4373173289, "lat": 23.1508884, "lon": 113.3186516, "tags": {"amenity": "fast_food", "branch": "东方宝泰店", "brand": "吉野家", "brand:en": "Yoshinoya", "brand:ja": "吉野家", "brand:wikidata": "Q776272", "brand:wikipedia": "ja:吉野家", "brand:zh": "吉野家", "brand:zh-Hans": "吉野家", "brand:zh-Hant": "吉野家", "cuisine": "beef_bowl", "name": "吉野家", "name:en": "Yoshinoya", "name:ja": "吉野家", "name:zh": "吉野家", "name:zh-Hans": "吉野家", "name:zh-Hant": "吉野家", "takeaway": "yes"}}, {"type": "node", "id": 4513920643, "lat": 23.1245095, "lon": 113.3619107, "tags": {"amenity": "fast_food", "brand": "麦当劳", "brand:en": "McDonald's", "brand:wikidata": "Q38076", "brand:wikipedia": "zh:麦当劳", "brand:zh": "麦当劳", "brand:zh-Hans": "麦当劳", "cuisine": "burger", "name": "麦当劳", "name:en": "McDonald's", "name:zh": "麦当劳", "name:zh-Hans": "麦当劳", "takeaway": "yes"}}, {"type": "node", "id": 4540665445, "lat": 23.165989, "lon": 113.3649037, "tags": {"amenity": "restaurant", "name": "稻香园"}}, {"type": "node", "id": 4665642582, "lat": 23.1188941, "lon": 113.3858098, "tags": {"amenity": "restaurant", "brand": "必胜客", "brand:en": "Pizza Hut", "brand:wikidata": "Q191615", "brand:wikipedia": "zh:必胜客", "brand:zh": "必胜客", "capacity": "50", "cuisine": "pizza", "name": "必胜客", "name:en": "Pizza Hut", "name:zh": "必胜客", "outdoor_seating": "no", "smoking": "no", "takeaway": "yes"}}, {"type": "node", "id": 4665642583, "lat": 23.118934, "lon": 113.3853014, "tags": {"amenity": "fast_food", "brand": "肯德基", "brand:en": "KFC", "brand:wikidata": "Q524757", "brand:wikipedia": "zh:肯德基", "brand:zh": "肯德基", "cuisine": "chicken", "name": "肯德基", "name:en": "KFC", "name:zh": "肯德基", "takeaway": "yes"}}, {"type": "node", "id": 4735438424, "lat": 23.138282, "lon": 113.3431451, "tags": {"addr:city": "广州市", "addr:street": "中山大道西", "amenity": "restaurant", "name:en": "Refreshing vegetarian food"}}, {"type": "node", "id": 4735438426, "lat": 23.1426294, "lon": 113.3369604, "tags": {"addr:city": "广州市", "addr:district": "天河区", "addr:province": "广东省", "addr:street": "龙口中路", "amenity": "restaurant", "cuisine": "chinese", "diet:vegetarian": "yes", "name": "绿源素食馆", "name:en": "Greenland vegetarian cafe", "opening_hours": "Mo-Su 11:00-20:00"}}, {"type": "node", "id": 4735438824, "lat": 23.1508202, "lon": 113.3200414, "tags": {"amenity": "fast_food", "brand": "麦当劳", "brand:en": "McDonald's", "brand:wikidata": "Q38076", "brand:wikipedia": "zh:麦当劳", "brand:zh": "麦当劳", "brand:zh-Hans": "麦当劳", "cuisine": "burger", "name": "麦当劳", "name:en": "McDonald's", "name:zh": "麦当劳", "name:zh-Hans": "麦当劳", "takeaway": "yes"}}, {"type": "node", "id": 4735438827, "lat": 23.1624073, "lon": 113.3146431, "tags": {"addr:city": "广州市", "addr:street": "沙太南路, upstairs in Health food Shop", "amenity": "restaurant", "diet:vegan": "yes", "diet:vegetarian": "only", "name:en": "Wen Xing vegetarian", "source": "survey"}}, {"type": "node", "id": 4756190455, "lat": 23.1232155, "lon": 113.3241668, "tags": {"amenity": "restaurant", "name": "Hooley's Irish", "name:en": "Hooley's Irish", "name:zh": "Hooley's Irish"}}, {"type": "node", "id": 4757391221, "lat": 23.1439229, "lon": 113.3257276, "tags": {"amenity": "cafe", "cuisine": "american;coffee_shop", "name:en": "W Coffee", "wheelchair": "yes"}}, {"type": "node", "id": 4757391222, "lat": 23.1430333, "lon": 113.3246155, "tags": {"amenity": "cafe", "cuisine": "american;bagel;coffee_shop", "name:en": "Feel More Bagels and Coffee", "wheelchair": "no"}}, {"type": "node", "id": 4757391223, "lat": 23.1440125, "lon": 113.3291814, "tags": {"amenity": "cafe", "cuisine": "american;pancake;coffee_shop", "name:en": "Maan Coffee"}}, {"type": "node", "id": 4810677125, "lat": 23.136894, "lon": 113.3142853, "tags": {"amenity": "cafe", "brand": "星巴克", "brand:en": "Starbucks", "brand:wikidata": "Q37158", "brand:wikipedia": "zh:星巴克", "brand:zh": "星巴克", "cuisine": "coffee_shop", "name": "星巴克", "name:en": "Starbucks", "name:fr": "Starbucks", "name:zh": "星巴克", "official_name": "Starbucks Coffee", "takeaway": "yes"}}, {"type": "node", "id": 4810677126, "lat": 23.1364019, "lon": 113.3237384, "tags": {"amenity": "fast_food", "brand": "麦当劳", "brand:en": "McDonald's", "brand:wikidata": "Q38076", "brand:wikipedia": "zh:麦当劳", "brand:zh": "麦当劳", "brand:zh-Hans": "麦当劳", "cuisine": "burger", "name": "麦当劳", "name:en": "McDonald's", "name:fr": "Mac do", "name:zh": "麦当劳", "name:zh-Hans": "麦当劳", "takeaway": "yes"}}, {"type": "node", "id": 4905215359, "lat": 23.1279641, "lon": 113.3663933, "tags": {"amenity": "fast_food", "brand": "赛百味", "brand:en": "Subway", "brand:wikidata": "Q244457", "brand:wikipedia": "zh:赛百味", "brand:zh": "赛百味", "cuisine": "sandwich", "drive_through": "no", "name": "赛百味", "name:en": "Subway", "name:zh": "赛百味", "outdoor_seating": "no", "takeaway": "yes"}}, {"type": "node", "id": 4925330421, "lat": 23.131006, "lon": 113.3208117, "tags": {"amenity": "restaurant", "cuisine": "american;mexican", "internet_access": "wlan", "name:en": "Tristan's"}}, {"type": "node", "id": 4937826921, "lat": 23.134868, "lon": 113.3266642, "tags": {"amenity": "cafe", "brand": "喜茶", "brand:en": "Heytea", "brand:wikidata": "Q60875376", "brand:wikipedia": "zh:喜茶", "brand:zh": "喜茶", "cuisine": "bubble_tea", "name": "喜茶", "name:en": "Heytea", "name:zh": "喜茶", "takeaway": "yes"}}, {"type": "node", "id": 4981910940, "lat": 23.127865, "lon": 113.374626, "tags": {"amenity": "fast_food", "branch": "棠下店", "brand": "真功夫", "brand:en": "Kungfu", "brand:wikidata": "Q15909765", "brand:wikipedia": "zh:真功夫", "brand:zh": "真功夫", "cuisine": "chinese", "name": "真功夫", "name:en": "Kungfu", "name:zh": "真功夫", "takeaway": "yes"}}, {"type": "node", "id": 4988296320, "lat": 23.154497, "lon": 113.3220196, "tags": {"shop": "convenience", "wheelchair": "no"}}, {"type": "node", "id": 5027767628, "lat": 23.1262437, "lon": 113.3124959, "tags": {"amenity": "restaurant", "diet:vegetarian": "only", "name": "Vegetarian"}}, {"type": "node", "id": 5029856887, "lat": 23.1902303, "lon": 113.3946031, "tags": {"name": "酸奶店", "shop": "convenience"}}, {"type": "node", "id": 5036052341, "lat": 23.1205887, "lon": 113.3267168, "tags": {"amenity": "fast_food", "brand": "肯德基", "brand:en": "KFC", "brand:wikidata": "Q524757", "brand:wikipedia": "zh:肯德基", "brand:zh": "肯德基", "cuisine": "chicken", "name": "肯德基", "name:en": "KFC", "name:zh": "肯德基", "takeaway": "yes"}}, {"type": "node", "id": 5036052342, "lat": 23.1205682, "lon": 113.326977, "tags": {"amenity": "fast_food", "brand": "麦当劳", "brand:en": "McDonald's", "brand:wikidata": "Q38076", "brand:wikipedia": "zh:麦当劳", "brand:zh": "麦当劳", "brand:zh-Hans": "麦当劳", "cuisine": "burger", "name": "麦当劳", "name:en": "McDonald's", "name:zh": "麦当劳", "name:zh-Hans": "麦当劳", "takeaway": "yes"}}, {"type": "node", "id": 5036052359, "lat": 23.1205171, "lon": 113.3250111, "tags": {"name": "开芯好美式超市", "name:zh": "开芯好美式超市", "shop": "supermarket"}}, {"type": "node", "id": 5063351821, "lat": 23.1558133, "lon": 113.3283006, "tags": {"addr:city": "广州市", "addr:housenumber": "68", "addr:street": "粤垦路", "amenity": "restaurant", "name": "沙拉姐姐", "name:en": "Enjoy Salad", "name:zh": "沙拉姐姐"}}, {"type": "node", "id": 5070038166, "lat": 23.1116638, "lon": 113.353897, "tags": {"amenity": "restaurant", "name": "六合茶舍", "name:zh": "六合茶舍"}}, {"type": "node", "id": 5074874585, "lat": 23.1353755, "lon": 113.3296122, "tags": {"name": "颐高数码广场", "name:zh": "颐高数码广场", "shop": "mall"}}, {"type": "node", "id": 5083924821, "lat": 23.1231353, "lon": 113.3255801, "tags": {"amenity": "restaurant", "name:en": "King Shwarma"}}, {"type": "node", "id": 5195843145, "lat": 23.1291968, "lon": 113.3378231, "tags": {"amenity": "fast_food", "brand": "麦当劳", "brand:en": "McDonald's", "brand:wikidata": "Q38076", "brand:wikipedia": "zh:麦当劳", "brand:zh": "麦当劳", "brand:zh-Hans": "麦当劳", "cuisine": "burger", "name": "麦当劳", "name:en": "McDonald's", "name:zh": "麦当劳", "name:zh-Hans": "麦当劳", "takeaway": "yes"}}, {"type": "node", "id": 5195843146, "lat": 23.1292031, "lon": 113.3374875, "tags": {"amenity": "cafe", "brand": "星巴克", "brand:en": "Starbucks", "brand:wikidata": "Q37158", "brand:wikipedia": "zh:星巴克", "brand:zh": "星巴克", "cuisine": "coffee_shop", "name": "星巴克", "name:en": "Starbucks", "name:zh": "星巴克", "takeaway": "yes"}}, {"type": "node", "id": 5199665722, "lat": 23.143274, "lon": 113.326869, "tags": {"amenity": "cafe", "name:en": "Pancake Place"}}, {"type": "node", "id": 5216465024, "lat": 23.1225872, "lon": 113.3127718, "tags": {"amenity": "fast_food", "branch": "双城国际店", "brand": "肯德基", "brand:en": "KFC", "brand:wikidata": "Q524757", "brand:wikipedia": "zh:肯德基", "brand:zh": "肯德基", "cuisine": "chicken", "drive_through": "no", "name": "肯德基", "name:en": "KFC", "name:zh": "肯德基", "takeaway": "yes"}}, {"type": "node", "id": 5261928359, "lat": 23.1961611, "lon": 113.3610044, "tags": {"name": "华润万家", "shop": "supermarket"}}, {"type": "node", "id": 5262112758, "lat": 23.1280469, "lon": 113.3726958, "tags": {"amenity": "restaurant", "brand": "必胜客", "brand:en": "Pizza Hut", "brand:wikidata": "Q191615", "brand:wikipedia": "en:Pizza Hut", "brand:zh": "必胜客", "cuisine": "pizza", "name": "必胜客", "name:en": "Pizza Hut", "name:zh": "必胜客"}}, {"type": "node", "id": 5266078865, "lat": 23.1215063, "lon": 113.3118499, "tags": {"amenity": "restaurant", "name": "开饭", "name:zh": "开饭"}}, {"type": "node", "id": 5266078866, "lat": 23.1216256, "lon": 113.3120365, "tags": {"amenity": "fast_food", "brand": "汉堡王", "brand:en": "Burger King", "brand:wikidata": "Q177054", "brand:wikipedia": "zh:漢堡王", "brand:zh": "汉堡王", "cuisine": "burger", "name": "汉堡王", "name:en": "Burger King", "name:zh": "汉堡王", "takeaway": "yes"}}, {"type": "node", "id": 5266078867, "lat": 23.1217251, "lon": 113.3123096, "tags": {"amenity": "cafe", "brand": "星巴克", "brand:en": "Starbucks", "brand:wikidata": "Q37158", "brand:wikipedia": "zh:星巴克", "brand:zh": "星巴克", "cuisine": "coffee_shop", "name": "星巴克", "name:en": "Starbucks", "name:zh": "星巴克", "official_name": "Starbucks Coffee", "takeaway": "yes"}}, {"type": "node", "id": 5266099832, "lat": 23.1262036, "lon": 113.3129396, "tags": {"amenity": "fast_food", "brand": "麦当劳", "brand:en": "McDonald's", "brand:wikidata": "Q38076", "brand:wikipedia": "zh:麦当劳", "brand:zh": "麦当劳", "brand:zh-Hans": "麦当劳", "cuisine": "burger", "name": "麦当劳", "name:en": "McDonald's", "name:zh": "麦当劳", "name:zh-Hans": "麦当劳", "takeaway": "yes"}}, {"type": "node", "id": 5271292342, "lat": 23.1415108, "lon": 113.3459831, "tags": {"amenity": "restaurant", "name": "陶园（食堂）", "name:zh": "陶园（食堂）"}}, {"type": "node", "id": 5272996392, "lat": 23.1384353, "lon": 113.3232188, "tags": {"brand": "OK便利店", "brand:en": "Circle K", "brand:wikidata": "Q3268010", "brand:wikipedia": "zh:OK便利店", "brand:zh": "OK便利店", "name": "OK便利店", "name:en": "Circle K", "name:zh": "OK便利店", "shop": "convenience", "wheelchair": "yes"}}, {"type": "node", "id": 5286004740, "lat": 23.1294953, "lon": 113.3139941, "tags": {"name": "保利时光里商场", "shop": "mall"}}, {"type": "node", "id": 5289145323, "lat": 23.1181098, "lon": 113.3343779, "tags": {"addr:city": "广州市", "addr:housenumber": "100, 102, 106", "addr:street": "海风路", "amenity": "restaurant", "cuisine": "pasta;italian;pizza;italian_pizza", "name": "欧吉意大利餐厅", "name:en": "OGGI Trattoria", "phone": "+86 20 3862 0240"}}, {"type": "node", "id": 5289145522, "lat": 23.1476143, "lon": 113.3248438, "tags": {"addr:street": "华庭路", "amenity": "cafe", "cuisine": "sandwich;international;breakfast;ice_cream;tea;cake;coffee_shop;noodles;pasta", "internet_access": "wlan", "name": "不止咖啡", "name:en": "Hobbylab - Coffee & Fun", "opening_hours": "Su-Th 09:30-23:00; Fr-Sa 09:00-23:30"}}, {"type": "node", "id": 5291766427, "lat": 23.1963122, "lon": 113.3641412, "tags": {"amenity": "restaurant", "name": "渔民新村"}}, {"type": "node", "id": 5434403275, "lat": 23.1364935, "lon": 113.3331437, "tags": {"brand": "喜士多", "brand:en": "C-Store", "brand:wikidata": "Q60992580", "brand:wikipedia": "zh:喜士多", "brand:zh": "喜士多", "name": "喜士多", "name:en": "C-Store", "name:zh": "喜士多", "shop": "convenience"}}, {"type": "node", "id": 5436606247, "lat": 23.1431445, "lon": 113.3127454, "tags": {"brand": "全家", "brand:en": "FamilyMart", "brand:wikidata": "Q11247682", "brand:wikipedia": "zh:FamilyMart", "brand:zh": "全家", "name": "全家", "name:en": "FamilyMart", "name:zh": "全家", "shop": "convenience"}}, {"type": "node", "id": 5436606249, "lat": 23.1526446, "lon": 113.3076757, "tags": {"amenity": "marketplace", "name": "西支涌市场", "name:zh": "西支涌市场"}}, {"type": "node", "id": 5495322853, "lat": 23.169314, "lon": 113.3340364, "tags": {"amenity": "restaurant", "delivery": "no", "name": "北区二饭堂", "name:zh": "北区二饭堂", "outdoor_seating": "no"}}, {"type": "node", "id": 5566414243, "lat": 23.1520972, "lon": 113.3178094, "tags": {"amenity": "fast_food", "brand": "麦当劳", "brand:en": "McDonald's", "brand:wikidata": "Q38076", "brand:wikipedia": "zh:麦当劳", "brand:zh": "麦当劳", "brand:zh-Hans": "麦当劳", "cuisine": "burger", "drive_through": "no", "name": "麦当劳", "name:en": "McDonald's", "name:zh": "麦当劳", "name:zh-Hans": "麦当劳", "outdoor_seating": "no", "takeaway": "yes"}}, {"type": "node", "id": 5572445511, "lat": 23.1614699, "lon": 113.3222961, "tags": {"amenity": "restaurant", "name": "海门鱼仔（燕岭店）", "name:zh": "海门鱼仔（燕岭店）"}}, {"type": "node", "id": 5596657473, "lat": 23.1205867, "lon": 113.3208873, "tags": {"addr:housenumber": "6", "addr:street": "珠江东路", "air_conditioning": "yes", "currency:CNY": "yes", "name": "K11", "name:en": "Guangzhou K11 Art Mall", "name:zh": "广州K11购物艺术中心", "opening_hours": "Mo-Su 10:00-22:00", "payment:cash": "yes", "payment:credit_cards": "yes", "phone": "+86 400 830 8032", "shop": "mall", "website": "https://gz.k11.com", "wheelchair": "yes"}}, {"type": "node", "id": 5647978078, "lat": 23.1544192, "lon": 113.3481014, "tags": {"alt_name": "麦当劳 广州五山分店", "amenity": "fast_food", "brand": "麦当劳", "brand:en": "McDonald's", "brand:wikidata": "Q38076", "brand:wikipedia": "zh:麦当劳", "brand:zh": "麦当劳", "brand:zh-Hans": "麦当劳", "cuisine": "burger", "drive_through": "no", "name": "麦当劳", "name:en": "McDonald's", "name:zh": "麦当劳", "name:zh-Hans": "麦当劳", "opening_hours": "Mo-Su 07:00-22:00", "phone": "+86 20 8528 6067", "takeaway": "yes"}}, {"type": "node", "id": 5651137723, "lat": 23.1226137, "lon": 113.3208105, "tags": {"amenity": "cafe", "brand": "星巴克", "brand:en": "Starbucks", "brand:wikidata": "Q37158", "brand:wikipedia": "zh:星巴克", "brand:zh": "星巴克", "cuisine": "coffee_shop", "name": "星巴克", "name:en": "Starbucks", "name:zh": "星巴克", "takeaway": "yes"}}, {"type": "node", "id": 5761602898, "lat": 23.1180143, "lon": 113.3338079, "tags": {"amenity": "restaurant", "name": "1920"}}, {"type": "node", "id": 5761602899, "lat": 23.1183233, "lon": 113.3344072, "tags": {"brand": "OK便利店", "brand:en": "Circle K", "brand:wikidata": "Q3268010", "brand:zh": "OK便利店", "name": "OK便利店", "name:en": "Circle K", "name:zh": "OK便利店", "shop": "convenience"}}, {"type": "node", "id": 5761602923, "lat": 23.1183261, "lon": 113.3341697, "tags": {"amenity": "cafe", "brand": "Costa咖啡", "brand:en": "Costa", "brand:wikidata": "Q608845", "brand:zh": "Costa咖啡", "cuisine": "coffee_shop", "name": "Costa咖啡", "name:en": "Costa", "name:zh": "Costa咖啡", "takeaway": "yes"}}, {"type": "node", "id": 5761602925, "lat": 23.1181139, "lon": 113.3339917, "tags": {"amenity": "restaurant", "name": "藤鹤", "name:zh": "藤鹤"}}, {"type": "node", "id": 5826874600, "lat": 23.1745561, "lon": 113.3388398, "tags": {"addr:city": "广州市", "addr:district": "天河区", "addr:housenumber": "5", "addr:province": "广东省", "addr:street": "天源路", "amenity": "cafe", "brand": "星巴克", "brand:en": "Starbucks", "brand:wikidata": "Q37158", "brand:wikipedia": "zh:星巴克", "brand:zh": "星巴克", "cuisine": "coffee_shop", "name": "星巴克", "name:en": "Starbucks", "name:zh": "星巴克", "opening_hours": "Mo-Fr 07:00-22:00; Sa-Su 07:30-22:30", "takeaway": "yes"}}, {"type": "node", "id": 5834317598, "lat": 23.1459286, "lon": 113.3237471, "tags": {"addr:city": "广州市", "addr:district": "天河区", "addr:housenumber": "39-49号三楼", "addr:postcode": "510000", "addr:province": "广东省", "addr:street": "林乐路", "amenity": "restaurant", "cuisine": "chinese;潮菜/粤菜", "name": "潮庄酒家"}}, {"type": "node", "id": 5834317657, "lat": 23.145996, "lon": 113.3248097, "tags": {"addr:city": "广州市", "addr:district": "天河区", "addr:postcode": "510000", "addr:province": "广东省", "addr:street": "林乐路", "amenity": "restaurant", "cuisine": "coffee_shop", "name": "Be Bright", "takeaway": "yes"}}, {"type": "node", "id": 5862644591, "lat": 23.1236632, "lon": 113.3251698, "tags": {"amenity": "restaurant", "diet:vegan": "only", "name": "Go Vegan", "name:de": "Go Vegan"}}, {"type": "node", "id": 6043569136, "lat": 23.1482784, "lon": 113.3301959, "tags": {"amenity": "restaurant", "name": "一号饭堂"}}, {"type": "node", "id": 6064197587, "lat": 23.1223083, "lon": 113.3571838, "tags": {"amenity": "fast_food", "brand": "麦当劳", "brand:en": "McDonald's", "brand:wikidata": "Q38076", "brand:zh": "麦当劳", "cuisine": "burger", "name": "麦当劳", "name:en": "McDonald's", "name:zh": "麦当劳", "takeaway": "yes"}}, {"type": "node", "id": 6082340987, "lat": 23.1581618, "lon": 113.3255906, "tags": {"amenity": "fast_food", "brand": "肯德基", "brand:en": "KFC", "brand:wikidata": "Q524757", "brand:zh": "肯德基", "cuisine": "chicken", "name": "肯德基", "name:en": "KFC", "name:zh": "肯德基", "takeaway": "yes"}}, {"type": "node", "id": 6168678099, "lat": 23.1282403, "lon": 113.3662157, "tags": {"amenity": "cafe", "internet_access": "wlan", "name": "贝塔咖啡", "outdoor_seating": "no"}}, {"type": "node", "id": 6191758040, "lat": 23.1205388, "lon": 113.3219303, "tags": {"amenity": "restaurant", "brand": "点都德", "brand:en": "Diandoude", "brand:wikidata": "Q97780269", "brand:wikipedia": "zh:点都德", "brand:yue": "點都德", "brand:zh": "点都德", "cuisine": "cantonese", "name": "点都德", "name:en": "Diandoude", "name:yue": "點都德", "name:zh": "点都德"}}, {"type": "node", "id": 6351696302, "lat": 23.1330754, "lon": 113.3164165, "tags": {"shop": "supermarket"}}, {"type": "node", "id": 6358132221, "lat": 23.1354043, "lon": 113.3185344, "tags": {"amenity": "cafe", "branch": "天环广场2店", "brand": "星巴克", "brand:en": "Starbucks", "brand:wikidata": "Q37158", "brand:wikipedia": "zh:星巴克", "brand:zh": "星巴克", "cuisine": "coffee_shop", "internet_access": "wlan", "name": "星巴克", "name:en": "Starbucks", "name:zh": "星巴克", "official_name": "Starbucks Coffee", "outdoor_seating": "no", "smoking": "no", "takeaway": "yes"}}, {"type": "node", "id": 6358142904, "lat": 23.1369198, "lon": 113.3156649, "tags": {"amenity": "cafe", "branch": "维多利广场店", "brand": "星巴克", "brand:en": "Starbucks", "brand:wikidata": "Q37158", "brand:wikipedia": "en:Starbucks", "brand:zh": "星巴克", "cuisine": "coffee_shop", "level": "-1", "name": "星巴克", "name:en": "Starbucks", "name:zh": "星巴克", "official_name": "Starbucks Coffee", "outdoor_seating": "yes", "takeaway": "yes"}}, {"type": "node", "id": 6358142906, "lat": 23.1374942, "lon": 113.3152007, "tags": {"amenity": "fast_food", "branch": "维多利广场餐厅", "brand": "麦当劳", "brand:en": "McDonald's", "brand:wikidata": "Q38076", "brand:wikipedia": "en:McDonald's", "brand:zh": "麦当劳", "cuisine": "burger", "level": "1;2", "name": "麦当劳", "name:en": "McDonald's", "name:zh": "麦当劳", "takeaway": "yes"}}, {"type": "node", "id": 6358142907, "lat": 23.1375658, "lon": 113.3154932, "tags": {"brand": "OK便利店", "brand:en": "Circle K", "brand:wikidata": "Q3268010", "brand:wikipedia": "en:Circle K", "brand:zh": "OK便利店", "name": "OK便利店", "name:en": "Circle K", "name:zh": "OK便利店", "shop": "convenience"}}, {"type": "node", "id": 6537156410, "lat": 23.1313648, "lon": 113.3652455, "tags": {"amenity": "restaurant", "name": "昔士风西餐厅"}}, {"type": "node", "id": 6588040310, "lat": 23.1338873, "lon": 113.3172587, "tags": {"brand": "7-Eleven", "brand:wikidata": "Q259340", "brand:wikipedia": "en:7-Eleven", "name": "7-Eleven", "shop": "convenience"}}, {"type": "node", "id": 6592687629, "lat": 23.1526803, "lon": 113.3063612, "tags": {"amenity": "marketplace", "name": "沙东农贸市场"}}, {"type": "node", "id": 6612632861, "lat": 23.1143301, "lon": 113.3225383, "tags": {"amenity": "restaurant", "name": "海心沙2号"}}, {"type": "node", "id": 6612939090, "lat": 23.1347638, "lon": 113.3209139, "tags": {"name": "Taste", "name:en": "Taste", "opening_hours": "Mo-Su 09:30-22:30", "operator": "A.S. Watson Group (Hong Kong) Ltd.", "shop": "supermarket", "wikidata": "Q7687667", "wikimedia_commons": "Category:Taste (supermarket)", "wikipedia": "zh:Taste"}}, {"type": "node", "id": 6614185026, "lat": 23.1333774, "lon": 113.3207716, "tags": {"brand": "7-Eleven", "brand:wikidata": "Q259340", "brand:wikipedia": "en:7-Eleven", "name": "7-Eleven", "name:en": "7 Eleven", "opening_hours": "24/7", "shop": "convenience"}}, {"type": "node", "id": 6615158790, "lat": 23.1334221, "lon": 113.3192298, "tags": {"brand": "全家", "brand:en": "FamilyMart", "brand:wikidata": "Q11247682", "brand:wikipedia": "zh:FamilyMart", "brand:zh": "全家", "name": "全家", "name:en": "FamilyMart", "name:zh": "全家", "opening_hours": "24/7", "shop": "convenience"}}, {"type": "node", "id": 6639638512, "lat": 23.1734136, "lon": 113.408046, "tags": {"brand": "全家", "brand:en": "FamilyMart", "brand:wikidata": "Q1191685", "brand:wikipedia": "zh:FamilyMart", "name": "全家", "name:en": "FamilyMart", "opening_hours": "09:00-21:00", "payment:cash": "yes", "shop": "convenience", "wheelchair": "yes"}}, {"type": "node", "id": 6639648931, "lat": 23.1734234, "lon": 113.4082391, "tags": {"amenity": "fast_food", "name": "碗里来"}}, {"type": "node", "id": 6742427174, "lat": 23.1226657, "lon": 113.3115459, "tags": {"brand": "全家", "brand:en": "FamilyMart", "brand:wikidata": "Q11247682", "brand:wikipedia": "en:FamilyMart", "brand:zh": "全家", "name": "全家", "name:en": "FamilyMart", "name:zh": "全家", "shop": "convenience"}}, {"type": "node", "id": 6742566520, "lat": 23.1352912, "lon": 113.3174545, "tags": {"addr:city": "广州市", "addr:district": "天河区", "addr:housenumber": "208号", "addr:province": "广东省", "addr:street": "天河路", "amenity": "cafe", "brand": "星巴克", "brand:en": "Starbucks", "brand:wikidata": "Q37158", "brand:wikipedia": "zh:星巴克", "brand:zh": "星巴克", "cuisine": "coffee_shop", "name": "星巴克", "name:en": "Starbucks", "name:zh": "星巴克", "official_name": "Starbucks Coffee", "outdoor_seating": "yes", "takeaway": "yes"}}, {"type": "node", "id": 6750842691, "lat": 23.1224941, "lon": 113.3139324, "tags": {"name": "喜市多", "shop": "convenience"}}, {"type": "node", "id": 6875262189, "lat": 23.1217687, "lon": 113.3121252, "tags": {"brand": "7-Eleven", "brand:wikidata": "Q259340", "brand:wikipedia": "en:7-Eleven", "name": "7-Eleven", "shop": "convenience"}}, {"type": "node", "id": 6906057369, "lat": 23.121679, "lon": 113.3105429, "tags": {"amenity": "restaurant", "name": "苏子花艺西餐·CBD最美后花园(花厨店)"}}, {"type": "node", "id": 6964126518, "lat": 23.1290429, "lon": 113.3193646, "tags": {"brand": "喜士多", "brand:en": "C-Store", "brand:wikidata": "Q60992580", "brand:wikipedia": "zh:喜士多", "brand:zh": "喜士多", "name": "喜士多", "name:en": "C-Store", "name:zh": "喜士多", "shop": "convenience"}}, {"type": "node", "id": 7001799322, "lat": 23.1227743, "lon": 113.3712209, "tags": {"amenity": "fast_food", "brand": "肯德基", "brand:en": "KFC", "brand:wikidata": "Q524757", "brand:wikipedia": "en:KFC", "brand:zh": "肯德基", "check_date": "2023-02-01", "cuisine": "chicken", "level": "0", "name": "肯德基", "name:en": "KFC", "name:zh": "肯德基", "takeaway": "yes"}}, {"type": "node", "id": 7144995085, "lat": 23.1761552, "lon": 113.4120536, "tags": {"addr:housenumber": "19号", "addr:street": "思成路", "amenity": "fast_food", "name": "赛百味（智慧谷店）", "name:en": "Subway（wisdom valley）", "opening_hours": "Mo-Su 08:00-20:00"}}, {"type": "node", "id": 7391388285, "lat": 23.1175786, "lon": 113.3229635, "tags": {"amenity": "restaurant", "name": "炳胜品味珠江新城店", "name:en": "Bingsheng Pinwei 1-4F"}}, {"type": "node", "id": 7391394585, "lat": 23.118989, "lon": 113.3162364, "tags": {"amenity": "restaurant", "name:en": "Lei Garden 4F"}}, {"type": "node", "id": 7846254850, "lat": 23.1195843, "lon": 113.3126873, "tags": {"amenity": "restaurant", "name": "十三行", "name:en": "13 Factories"}}, {"type": "node", "id": 7846254851, "lat": 23.1184103, "lon": 113.3118144, "tags": {"brand": "全家", "brand:en": "FamilyMart", "brand:wikidata": "Q11247682", "brand:wikipedia": "zh:FamilyMart", "brand:zh": "全家", "name": "全家", "name:en": "FamilyMart", "name:zh": "全家", "shop": "convenience"}}, {"type": "node", "id": 7846547878, "lat": 23.1187763, "lon": 113.3117913, "tags": {"amenity": "cafe", "name": "Coffee&Joy"}}, {"type": "node", "id": 7846550835, "lat": 23.1203897, "lon": 113.3217567, "tags": {"addr:city": "广州市", "addr:district": "天河区", "addr:housenumber": "68", "addr:province": "广东省", "addr:street": "花城大道", "alt_name": "肯德基 环球都会广场KFC", "amenity": "fast_food", "brand": "肯德基", "brand:en": "KFC", "brand:wikidata": "Q524757", "brand:wikipedia": "zh:肯德基", "brand:zh": "肯德基", "cuisine": "chicken", "drive_through": "no", "level": "0", "name": "肯德基", "name:en": "KFC", "name:zh": "肯德基", "opening_hours": "Mo-Su 06:00-23:00", "phone": "+86 20 8981 7415", "takeaway": "yes"}}, {"type": "node", "id": 7846560940, "lat": 23.1203801, "lon": 113.3215848, "tags": {"amenity": "cafe", "brand": "星巴克", "brand:en": "Starbucks", "brand:wikidata": "Q37158", "brand:zh": "星巴克", "cuisine": "coffee_shop", "name": "星巴克", "name:en": "Starbucks", "name:zh": "星巴克", "takeaway": "yes"}}, {"type": "node", "id": 7846580833, "lat": 23.1187821, "lon": 113.311912, "tags": {"amenity": "fast_food", "branch": "寺右公馆", "brand": "肯德基", "brand:en": "KFC", "brand:wikidata": "Q524757", "brand:wikipedia": "zh:肯德基", "brand:zh": "肯德基", "cuisine": "chicken", "drive_through": "no", "name": "肯德基", "name:en": "KFC", "name:zh": "肯德基", "opening_hours": "24/7", "phone": "+86 20 8233 1974", "takeaway": "yes"}}, {"type": "node", "id": 7846583047, "lat": 23.1296816, "lon": 113.3143121, "tags": {"amenity": "cafe", "brand": "瑞幸咖啡", "brand:en": "Luckin Coffee", "brand:wikidata": "Q56811344", "brand:wikipedia": "zh:瑞幸咖啡", "brand:zh": "瑞幸咖啡", "cuisine": "coffee_shop", "name": "瑞幸咖啡", "name:en": "Luckin Coffee", "name:zh": "瑞幸咖啡", "takeaway": "yes"}}, {"type": "node", "id": 7846585300, "lat": 23.1175629, "lon": 113.3170339, "tags": {"amenity": "cafe", "name": "Enjoy", "name:en": "Enjoy", "outdoor_seating": "yes"}}, {"type": "node", "id": 7961613985, "lat": 23.1561351, "lon": 113.3605361, "tags": {"amenity": "restaurant", "name": "芷园"}}, {"type": "node", "id": 7973926081, "lat": 23.1111214, "lon": 113.4089771, "tags": {"brand": "全家", "brand:en": "FamilyMart", "brand:wikidata": "Q11247682", "brand:wikipedia": "en:FamilyMart", "brand:zh": "全家", "name": "全家", "name:en": "FamilyMart", "name:zh": "全家", "shop": "convenience"}}, {"type": "node", "id": 7975842522, "lat": 23.158834, "lon": 113.3495361, "tags": {"amenity": "restaurant", "name": "绿榕园"}}, {"type": "node", "id": 8209087721, "lat": 23.1367435, "lon": 113.3153481, "tags": {"amenity": "fast_food", "branch": "购书中心餐厅", "brand": "肯德基", "brand:en": "KFC", "brand:wikidata": "Q524757", "brand:wikipedia": "zh:肯德基", "brand:zh": "肯德基", "cuisine": "chicken", "level": "-1", "name": "肯德基", "name:en": "KFC", "name:zh": "肯德基", "takeaway": "yes"}}, {"type": "node", "id": 8384522261, "lat": 23.1171402, "lon": 113.3124817, "tags": {"name": "喜市多", "shop": "convenience"}}, {"type": "node", "id": 8430633706, "lat": 23.1441908, "lon": 113.3346168, "tags": {"addr:city": "Guangzhou", "addr:district": "Tianhe", "addr:housenumber": "601", "addr:province": "Guangdong", "addr:street": "天河北路", "amenity": "cafe", "brand": "星巴克", "brand:en": "Starbucks", "brand:wikidata": "Q37158", "brand:wikipedia": "zh:星巴克", "brand:zh": "星巴克", "cuisine": "coffee_shop", "internet_access": "wlan", "internet_access:fee": "no", "name": "星巴克", "name:en": "Starbucks", "name:zh": "星巴克", "official_name": "Starbucks Coffee", "outdoor_seating": "no", "takeaway": "yes"}}, {"type": "node", "id": 8493527167, "lat": 23.1549019, "lon": 113.3467699, "tags": {"alt_name": "肯德基 五山", "amenity": "fast_food", "brand": "肯德基", "brand:en": "KFC", "brand:wikidata": "Q524757", "brand:wikipedia": "zh:肯德基", "brand:zh": "肯德基", "cuisine": "chicken", "drive_through": "no", "name": "肯德基", "name:en": "KFC", "name:zh": "肯德基", "opening_hours": "24/7", "phone": "+86 20 8528 4721", "takeaway": "yes"}}, {"type": "node", "id": 8493527170, "lat": 23.1352787, "lon": 113.3269114, "tags": {"branch": "天河二店", "brand": "全家", "brand:en": "FamilyMart", "brand:wikidata": "Q11247682", "brand:wikipedia": "zh:FamilyMart", "brand:zh": "全家", "name": "全家", "name:en": "FamilyMart", "name:zh": "全家", "shop": "convenience"}}, {"type": "node", "id": 8568942225, "lat": 23.1962834, "lon": 113.3607993, "tags": {"amenity": "fast_food", "brand": "肯德基", "brand:en": "KFC", "brand:wikidata": "Q524757", "brand:wikipedia": "en:KFC", "brand:zh": "肯德基", "cuisine": "chicken", "name": "肯德基", "name:en": "KFC", "name:zh": "肯德基", "takeaway": "yes"}}, {"type": "node", "id": 8568942226, "lat": 23.1969175, "lon": 113.3604349, "tags": {"amenity": "fast_food", "brand": "麦当劳", "brand:en": "McDonald's", "brand:wikidata": "Q38076", "brand:wikipedia": "en:McDonald's", "brand:zh": "麦当劳", "cuisine": "burger", "name": "麦当劳", "name:en": "McDonald's", "name:zh": "麦当劳", "takeaway": "yes"}}, {"type": "node", "id": 8625800757, "lat": 23.1197246, "lon": 113.3189672, "tags": {"addr:city": "广州市", "addr:district": "天河区", "addr:province": "广东省", "amenity": "cafe", "brand": "星巴克", "brand:en": "Starbucks", "brand:wikidata": "Q37158", "brand:wikipedia": "zh:星巴克", "brand:zh": "星巴克", "cuisine": "coffee_shop", "name": "星巴克", "name:en": "Starbucks", "name:zh": "星巴克", "outdoor_seating": "yes", "takeaway": "yes"}}, {"type": "node", "id": 8634172299, "lat": 23.1275833, "lon": 113.3733451, "tags": {"amenity": "fast_food", "branch": "好又多餐厅", "brand": "肯德基", "brand:en": "KFC", "brand:wikidata": "Q524757", "brand:wikipedia": "zh:肯德基", "brand:zh": "肯德基", "cuisine": "chicken", "name": "肯德基", "name:en": "KFC", "name:zh": "肯德基", "takeaway": "yes"}}, {"type": "node", "id": 8637872682, "lat": 23.1196158, "lon": 113.3855871, "tags": {"amenity": "restaurant", "cuisine": "chinese", "diet:meat": "yes", "name": "周承凉皮"}}, {"type": "node", "id": 8642646361, "lat": 23.1722247, "lon": 113.3424883, "tags": {"level": "-1;0;1", "name": "卜蜂莲花", "shop": "supermarket"}}, {"type": "node", "id": 8642646381, "lat": 23.1740009, "lon": 113.3382145, "tags": {"addr:city": "广州市", "addr:district": "天河区", "addr:housenumber": "5", "addr:province": "广东省", "addr:street": "天源路", "alt_name": "麦当劳 广州天源路分店", "amenity": "fast_food", "brand": "麦当劳", "brand:en": "McDonald's", "brand:wikidata": "Q38076", "brand:wikipedia": "zh:麦当劳", "brand:zh": "麦当劳", "brand:zh-Hans": "麦当劳", "cuisine": "burger", "drive_through": "no", "name": "麦当劳", "name:en": "McDonald's", "name:zh": "麦当劳", "name:zh-Hans": "麦当劳", "opening_hours": "24/7", "phone": "+86 20 3736 2771", "takeaway": "yes"}}, {"type": "node", "id": 8642646395, "lat": 23.1724012, "lon": 113.3421709, "tags": {"addr:city": "广州市", "addr:district": "天河区", "addr:housenumber": "13", "addr:housenumber2": "1A-01", "addr:province": "广东省", "addr:street": "长兴路", "air_conditioning": "yes", "alt_name": "麦当劳 广州长兴路餐厅", "amenity": "fast_food", "brand": "麦当劳", "brand:en": "McDonald's", "brand:wikidata": "Q38076", "brand:wikipedia": "zh:麦当劳", "brand:zh": "麦当劳", "brand:zh-Hans": "麦当劳", "cuisine": "burger", "drive_through": "no", "internet_access": "wlan", "level": "0;1", "name": "麦当劳", "name:en": "McDonald's", "name:zh": "麦当劳", "name:zh-Hans": "麦当劳", "opening_hours": "24/7", "outdoor_seating": "no", "phone": "+86 20 8560 5905", "socket": "no", "takeaway": "yes"}}, {"type": "node", "id": 8730343248, "lat": 23.1285463, "lon": 113.3341724, "tags": {"name": "优托邦驿站", "shop": "mall"}}, {"type": "node", "id": 8788421577, "lat": 23.1443804, "lon": 113.3375727, "tags": {"amenity": "fast_food", "brand": "汉堡王", "brand:en": "Burger King", "brand:wikidata": "Q177054", "brand:wikipedia": "en:Burger King", "brand:zh": "汉堡王", "cuisine": "burger", "drive_through": "no", "name": "汉堡王", "name:en": "Burger King", "name:zh": "汉堡王", "opening_hours": "Mo-Su 09:00-22:00", "takeaway": "yes"}}, {"type": "node", "id": 8788421578, "lat": 23.1443771, "lon": 113.3383487, "tags": {"amenity": "fast_food", "brand": "赛百味", "brand:en": "Subway", "brand:wikidata": "Q244457", "brand:wikipedia": "en:Subway (restaurant)", "brand:zh": "赛百味", "cuisine": "sandwich", "drive_through": "no", "name": "赛百味", "name:en": "Subway", "name:zh": "赛百味", "opening_hours": "Mo-Su 9:00-22:00", "takeaway": "yes"}}, {"type": "node", "id": 8788421585, "lat": 23.14259, "lon": 113.3388376, "tags": {"addr:city": "广州市", "addr:district": "天河区", "addr:province": "广东省", "addr:street": "五山路", "amenity": "fast_food", "brand": "麦当劳", "brand:en": "McDonald's", "brand:wikidata": "Q38076", "brand:wikipedia": "en:McDonald's", "brand:zh": "麦当劳", "brand:zh-Hans": "麦当劳", "cuisine": "burger", "drive_through": "no", "name": "麦当劳", "name:en": "McDonald's", "name:zh": "麦当劳", "name:zh-Hans": "麦当劳", "opening_hours": "24/7", "takeaway": "yes"}}, {"type": "node", "id": 8788421590, "lat": 23.1420325, "lon": 113.3387843, "tags": {"addr:city": "广州市", "addr:district": "天河区", "addr:province": "广东省", "addr:street": "五山路", "brand": "全家", "brand:en": "FamilyMart", "brand:wikidata": "Q1191685", "brand:wikipedia": "en:FamilyMart", "brand:zh": "全家", "name": "全家", "name:en": "FamilyMart", "name:zh": "全家", "opening_hours": "24/7", "payment:alipay": "yes", "payment:cash": "yes", "payment:wechat": "yes", "shop": "convenience"}}, {"type": "node", "id": 8788421595, "lat": 23.1442357, "lon": 113.3342566, "tags": {"addr:city": "广州市", "addr:district": "天河区", "addr:province": "广东省", "addr:street": "天河北路", "brand": "华润万家", "brand:en": "Vanguard", "brand:wikidata": "Q5099892", "brand:zh": "华润万家", "name": "华润万家", "name:en": "Vanguard", "name:zh": "华润万家", "opening_hours": "Mo-Su 10:00-22:00", "payment:alipay": "yes", "payment:cash": "yes", "payment:wechat": "yes", "shop": "supermarket"}}, {"type": "node", "id": 8840977907, "lat": 23.1687067, "lon": 113.3986721, "tags": {"addr:city": "广州市", "addr:district": "天河区", "addr:housenumber": "1932号116铺、117铺", "addr:province": "广东省", "addr:street": "华观路", "amenity": "fast_food", "brand": "麦当劳", "brand:en": "McDonald's", "brand:wikidata": "Q38076", "brand:wikipedia": "en:McDonald's", "brand:zh": "麦当劳", "cuisine": "burger", "drive_through": "no", "name": "麦当劳", "name:en": "McDonald's", "name:zh": "麦当劳", "takeaway": "yes"}}, {"type": "node", "id": 8840989935, "lat": 23.1694455, "lon": 113.3994409, "tags": {"addr:city": "广州市", "addr:district": "天河区", "addr:housenumber": "1932号", "addr:province": "广东省", "addr:street": "华观路", "amenity": "restaurant", "brand": "必胜客", "brand:en": "Pizza Hut", "brand:wikidata": "Q191615", "brand:zh": "必胜客", "cuisine": "pizza", "name": "必胜客", "name:en": "Pizza Hut", "name:zh": "必胜客", "phone": "+86 20 8706 6736;+86 400 830 1310"}}, {"type": "node", "id": 8841593850, "lat": 23.1692159, "lon": 113.3989785, "tags": {"addr:city": "广州市", "addr:district": "天河区", "addr:housenumber": "1933", "addr:province": "广东省", "addr:street": "华观路", "amenity": "cafe", "brand": "星巴克", "brand:en": "Starbucks", "brand:wikidata": "Q37158", "brand:wikipedia": "en:Starbucks", "brand:zh": "星巴克", "cuisine": "coffee_shop", "name": "星巴克", "name:en": "Starbucks", "name:zh": "星巴克", "official_name": "Starbucks Coffee", "phone": "+86 20 8928 9906", "takeaway": "yes"}}, {"type": "node", "id": 8857415221, "lat": 23.1555466, "lon": 113.3629544, "tags": {"branch": "华农泰山店", "name": "西亚兴安超市", "opening_hours": "Mo-Su 09:00-23:00", "shop": "supermarket"}}, {"type": "node", "id": 8857415241, "lat": 23.1589933, "lon": 113.3495314, "tags": {"name": "天猫超市 华农校园店", "shop": "supermarket"}}, {"type": "node", "id": 8857415342, "lat": 23.1762804, "lon": 113.3355659, "tags": {"alt_name": "肯德基 沙汕汽车穿梭餐厅", "amenity": "fast_food", "brand": "肯德基", "brand:en": "KFC", "brand:wikidata": "Q524757", "brand:wikipedia": "zh:肯德基", "brand:zh": "肯德基", "cuisine": "chicken", "drive_through": "yes", "level": "0-2", "name": "肯德基", "name:en": "KFC", "name:zh": "肯德基", "opening_hours": "24/7", "phone": "+86 20 3809 4875", "takeaway": "yes"}}, {"type": "node", "id": 8862453411, "lat": 23.1731212, "lon": 113.3946897, "tags": {"name": "黄记菜鸟驿站", "shop": "supermarket"}}, {"type": "node", "id": 8862454458, "lat": 23.1703197, "lon": 113.3940797, "tags": {"name": "凌塘村菜市场", "shop": "supermarket"}}, {"type": "node", "id": 8977446459, "lat": 23.1278695, "lon": 113.3683386, "tags": {"amenity": "cafe", "brand": "星巴克", "brand:en": "Starbucks", "brand:wikidata": "Q37158", "brand:wikipedia": "zh:星巴克", "brand:zh": "星巴克", "cuisine": "coffee_shop", "name": "星巴克", "name:en": "Starbucks", "name:zh": "星巴克", "official_name": "Starbucks Coffee", "takeaway": "yes"}}, {"type": "node", "id": 8977456181, "lat": 23.1234566, "lon": 113.3612777, "tags": {"amenity": "marketplace", "name": "员村市场"}}, {"type": "node", "id": 9108317093, "lat": 23.1538556, "lon": 113.3487045, "tags": {"name": "五山新天地", "shop": "mall"}}, {"type": "node", "id": 9108317094, "lat": 23.1550164, "lon": 113.3471248, "tags": {"name": "五山广场", "shop": "mall"}}, {"type": "node", "id": 9123467390, "lat": 23.1383636, "lon": 113.3346455, "tags": {"addr:country": "CN", "addr:district": "天河区", "addr:housename": "天娱广场", "addr:housenumber": "621-625", "addr:province": "广东省", "addr:street": "天河路", "addr:unit": "3楼", "amenity": "restaurant", "branch": "天娱广场店", "brand": "味千拉面", "brand:en": "Ajisen Ramen", "brand:ja": "味千ラーメン", "brand:wikidata": "Q4699761", "brand:wikipedia": "zh:味千拉麵", "brand:zh": "味千拉面", "brand:zn": "味千拉面", "cuisine": "ramen", "delivery": "yes", "level": "3", "name": "味千拉面", "name:en": "Ajisen Ramen", "name:ja": "味千ラーメン", "name:zh": "味千拉面", "opening_hours": "10:30-22:00"}}, {"type": "node", "id": 9123522600, "lat": 23.1189019, "lon": 113.3113509, "tags": {"amenity": "cafe", "branch": "华就路店", "brand": "星巴克", "brand:en": "Starbucks", "brand:wikidata": "Q37158", "brand:wikipedia": "zh:星巴克", "brand:zh": "星巴克", "cuisine": "coffee_shop", "name": "星巴克", "name:en": "Starbucks", "name:zh": "星巴克", "outdoor_seating": "no", "takeaway": "yes"}}, {"type": "node", "id": 9126726051, "lat": 23.1213823, "lon": 113.3127, "tags": {"amenity": "fast_food", "brand": "麦当劳", "brand:en": "McDonald's", "brand:wikidata": "Q38076", "brand:wikipedia": "zh:麦当劳", "brand:zh": "麦当劳", "brand:zh-Hans": "麦当劳", "cuisine": "burger", "name": "麦当劳", "name:en": "McDonald's", "name:zh": "麦当劳", "name:zh-Hans": "麦当劳", "takeaway": "yes"}}, {"type": "node", "id": 9179073541, "lat": 23.1373163, "lon": 113.3375698, "tags": {"amenity": "fast_food", "branch": "石牌东店", "brand": "肯德基", "brand:en": "KFC", "brand:wikidata": "Q524757", "brand:wikipedia": "zh:肯德基", "brand:zh": "肯德基", "cuisine": "chicken", "internet_access": "wlan", "internet_access:fee": "no", "level": "1", "level:ref": "2", "name": "肯德基", "name:en": "KFC", "name:zh": "肯德基", "opening_hours": "24/7", "smoking": "no", "takeaway": "yes", "wheelchair": "no"}}, {"type": "node", "id": 9198102679, "lat": 23.1526215, "lon": 113.3285264, "tags": {"alt_name": "麦当劳(粤垦路分店)", "amenity": "fast_food", "brand": "麦当劳", "brand:en": "McDonald's", "brand:wikidata": "Q38076", "brand:wikipedia": "zh:麦当劳", "brand:zh": "麦当劳", "brand:zh-Hans": "麦当劳", "cuisine": "burger", "name": "麦当劳", "name:en": "McDonald's", "name:zh": "麦当劳", "name:zh-Hans": "麦当劳", "takeaway": "yes"}}, {"type": "node", "id": 9247381428, "lat": 23.1380844, "lon": 113.3233049, "tags": {"amenity": "cafe", "brand": "星巴克", "brand:en": "Starbucks", "brand:wikidata": "Q37158", "brand:wikipedia": "zh:星巴克", "brand:zh": "星巴克", "cuisine": "coffee_shop", "name": "星巴克", "name:en": "Starbucks", "name:zh": "星巴克", "takeaway": "yes"}}, {"type": "node", "id": 9279773550, "lat": 23.1208741, "lon": 113.3127335, "tags": {"amenity": "restaurant", "cuisine": "chinese", "name": "及第粉"}}, {"type": "node", "id": 9284692844, "lat": 23.1690276, "lon": 113.3342402, "tags": {"amenity": "cafe", "brand": "瑞幸咖啡", "brand:en": "Luckin Coffee", "brand:wikidata": "Q56811344", "brand:wikipedia": "zh:瑞幸咖啡", "brand:zh": "瑞幸咖啡", "cuisine": "coffee_shop", "name": "瑞幸咖啡", "name:en": "Luckin Coffee", "name:zh": "瑞幸咖啡", "outdoor_seating": "no", "takeaway": "yes"}}, {"type": "node", "id": 9284692845, "lat": 23.1689768, "lon": 113.3342218, "tags": {"name": "西亚兴安超市", "shop": "supermarket"}}, {"type": "node", "id": 9284692846, "lat": 23.1652599, "lon": 113.3372471, "tags": {"amenity": "cafe", "brand": "蜜雪冰城", "brand:en": "Mixue Ice Cream & Tea", "brand:wikidata": "Q107406476", "brand:zh": "蜜雪冰城", "brand:zh-Latn-pinyin": "Mìxuě Bīngchéng", "cuisine": "ice_cream;bubble_tea", "name": "蜜雪冰城", "name:en": "Mixue Ice Cream & Tea", "name:zh": "蜜雪冰城", "name:zh-Latn-pinyin": "Mìxuě Bīngchéng", "operator": "蜜雪冰城股份有限公司", "outdoor_seating": "no", "takeaway": "yes"}}, {"type": "node", "id": 9284692847, "lat": 23.1552374, "lon": 113.3462649, "tags": {"brand": "7-Eleven", "brand:wikidata": "Q259340", "brand:wikipedia": "en:7-Eleven", "name": "7-Eleven", "shop": "convenience"}}, {"type": "node", "id": 9284692848, "lat": 23.1554375, "lon": 113.3462366, "tags": {"brand": "全家", "brand:en": "FamilyMart", "brand:wikidata": "Q11247682", "brand:wikipedia": "zh:FamilyMart", "brand:zh": "全家", "name": "全家", "name:en": "FamilyMart", "name:zh": "全家", "shop": "convenience"}}, {"type": "node", "id": 9284692849, "lat": 23.153939, "lon": 113.3486618, "tags": {"amenity": "restaurant", "brand": "必胜客", "brand:en": "Pizza Hut", "brand:wikidata": "Q191615", "brand:wikipedia": "zh:必胜客", "brand:zh": "必胜客", "cuisine": "pizza", "name": "必胜客", "name:en": "Pizza Hut", "name:zh": "必胜客"}}, {"type": "node", "id": 9284692850, "lat": 23.1546187, "lon": 113.3475379, "tags": {"amenity": "restaurant", "cuisine": "chinese", "diet:meat": "yes", "name": "东川饭局"}}, {"type": "node", "id": 9284692852, "lat": 23.1554917, "lon": 113.3465991, "tags": {"amenity": "cafe", "cuisine": "bubble_tea", "name": "茶理宜世"}}, {"type": "node", "id": 9284692853, "lat": 23.1553542, "lon": 113.3466177, "tags": {"amenity": "cafe", "cuisine": "bubble_tea", "name": "井益"}}, {"type": "node", "id": 9284692854, "lat": 23.1721687, "lon": 113.3423601, "tags": {"amenity": "cafe", "branch": "广州长兴路店", "brand": "星巴克", "brand:en": "Starbucks", "brand:wikidata": "Q37158", "brand:wikipedia": "zh:星巴克", "brand:zh": "星巴克", "cuisine": "coffee_shop", "internet_access": "wlan", "internet_access:fee": "no", "name": "星巴克", "name:en": "Starbucks", "name:zh": "星巴克", "opening_hours": "Mo-Su 08:00-22:00", "outdoor_seating": "yes", "takeaway": "yes"}}, {"type": "node", "id": 9284692855, "lat": 23.1723908, "lon": 113.3419129, "tags": {"amenity": "fast_food", "brand": "达美乐比萨", "brand:en": "Domino's", "brand:wikidata": "Q839466", "brand:wikipedia": "en:Domino's Pizza", "brand:zh": "达美乐比萨", "cuisine": "pizza", "drive_through": "no", "name": "达美乐比萨", "name:en": "Domino's", "name:zh": "达美乐比萨", "takeaway": "yes"}}, {"type": "node", "id": 9284692856, "lat": 23.1723329, "lon": 113.3422865, "tags": {"amenity": "restaurant", "cuisine": "italian", "name": "卢家妈妈"}}, {"type": "node", "id": 9284692857, "lat": 23.1729393, "lon": 113.3427197, "tags": {"name": "乐巴扎", "shop": "supermarket"}}, {"type": "node", "id": 9284692859, "lat": 23.1683319, "lon": 113.3406387, "tags": {"brand": "7-Eleven", "brand:wikidata": "Q259340", "brand:wikipedia": "en:7-Eleven", "name": "7-Eleven", "shop": "convenience"}}, {"type": "node", "id": 9284692860, "lat": 23.1686303, "lon": 113.341038, "tags": {"amenity": "fast_food", "brand": "华莱士", "brand:en": "CNHLS", "brand:wikidata": "Q15939607", "brand:wikipedia": "zh:华莱士 (快餐)", "brand:zh": "华莱士", "brand:zh-Hant": "華萊士", "cuisine": "burger;chicken", "name": "华莱士", "name:en": "CNHLS", "name:zh": "华莱士", "name:zh-Hant": "華萊士", "takeaway": "yes"}}, {"type": "node", "id": 9284692861, "lat": 23.1685369, "lon": 113.3408594, "tags": {"amenity": "cafe", "brand": "瑞幸咖啡", "brand:en": "Luckin Coffee", "brand:wikidata": "Q56811344", "brand:wikipedia": "zh:瑞幸咖啡", "brand:zh": "瑞幸咖啡", "cuisine": "coffee_shop", "name": "瑞幸咖啡", "name:en": "Luckin Coffee", "name:zh": "瑞幸咖啡", "takeaway": "yes"}}, {"type": "node", "id": 9284692862, "lat": 23.1444116, "lon": 113.3389981, "tags": {"amenity": "fast_food", "brand": "达美乐比萨", "brand:en": "Domino's", "brand:wikidata": "Q839466", "brand:wikipedia": "en:Domino's Pizza", "brand:zh": "达美乐比萨", "cuisine": "pizza", "name": "达美乐比萨", "name:en": "Domino's", "name:zh": "达美乐比萨", "takeaway": "yes"}}, {"type": "node", "id": 9284692863, "lat": 23.1445249, "lon": 113.339756, "tags": {"brand": "盒马鲜生", "brand:en": "Fresh Hema", "brand:wikidata": "Q58617964", "brand:wikipedia": "zh:盒馬鮮生", "brand:zh": "盒马鲜生", "name": "盒马鲜生", "name:en": "Fresh Hema", "name:zh": "盒马鲜生", "shop": "supermarket"}}, {"type": "node", "id": 9339334076, "lat": 23.1378955, "lon": 113.3279078, "tags": {"amenity": "restaurant", "name": "超级文和友"}}, {"type": "node", "id": 9372207903, "lat": 23.1199288, "lon": 113.3190477, "tags": {"addr:city": "广州市", "addr:district": "天河区", "addr:province": "广东省", "amenity": "cafe", "brand": "奈雪的茶", "brand:en": "Nayuki", "brand:wikidata": "Q107351710", "brand:wikipedia": "zh:奈雪的茶", "brand:zh": "奈雪的茶", "cuisine": "bubble_tea", "name": "奈雪的茶", "name:en": "Nayuki", "name:zh": "奈雪的茶", "outdoor_seating": "no", "takeaway": "yes"}}, {"type": "node", "id": 9385430070, "lat": 23.1184853, "lon": 113.3866603, "tags": {"air_conditioning": "yes", "amenity": "cafe", "brand": "蜜雪冰城", "brand:en": "Mixue Ice Cream & Tea", "brand:wikidata": "Q107406476", "brand:wikipedia": "zh:蜜雪冰城", "brand:zh": "蜜雪冰城", "brand:zh-Latn-pinyin": "Mìxuě Bīngchéng", "changing_table": "no", "cuisine": "ice_cream;bubble_tea", "delivery": "yes", "description": "中国连锁冰淇淋与茶饮品牌，提供高性价比的现制饮品", "description:en": "Chinese chain store offering affordable ice cream and bubble tea", "indoor_seating": "yes", "name": "蜜雪冰城", "name:en": "Mixue Ice Cream & Tea", "name:zh": "蜜雪冰城", "name:zh-Latn-pinyin": "Mìxuě Bīngchéng", "opening_hours": "Mo-Su 09:00-23:00", "outdoor_seating": "no", "payment:alipay": "yes", "payment:wechat": "yes", "smoking": "no", "takeaway": "yes"}}, {"type": "node", "id": 9390744995, "lat": 23.1686186, "lon": 113.4017797, "tags": {"name": "万科云城", "shop": "mall"}}, {"type": "node", "id": 9404667505, "lat": 23.1073012, "lon": 113.4097305, "tags": {"amenity": "cafe", "brand": "星巴克", "brand:en": "Starbucks", "brand:wikidata": "Q37158", "brand:wikipedia": "zh:星巴克", "brand:zh": "星巴克", "cuisine": "coffee_shop", "name": "星巴克", "name:en": "Starbucks", "name:zh": "星巴克", "takeaway": "yes"}}, {"type": "node", "id": 9404704640, "lat": 23.1073781, "lon": 113.4110045, "tags": {"amenity": "fast_food", "brand": "IKEA", "brand:en": "IKEA", "brand:wikidata": "Q54078", "brand:wikipedia": "zh:宜家家居", "brand:zh": "宜家餐厅", "cuisine": "swedish", "drive_through": "no", "name": "宜家餐厅", "name:en": "IKEA Restaurant", "name:zh": "宜家餐厅", "opening_hours": "Mo-Su 10:00-21:30", "takeaway": "yes"}}, {"type": "node", "id": 9404704642, "lat": 23.1055911, "lon": 113.4144219, "tags": {"air_conditioning": "no", "amenity": "restaurant", "cuisine": "hotpot;barbecue;korean;steak_house", "description": "all-you-can-eat, flat rate buffet", "level": "6", "name": "金韩宫韩式自助烤肉火锅", "name:en": "All-you-can-eat Buffet", "self_service": "yes", "wheelchair": "yes"}}, {"type": "node", "id": 9404704647, "lat": 23.106205, "lon": 113.4133325, "tags": {"brand": "盒马鲜生", "brand:en": "Fresh Hema", "brand:wikidata": "Q58617964", "brand:wikipedia": "zh:盒馬鮮生", "brand:zh": "盒马鲜生", "level": "-1", "name": "盒马鲜生", "name:en": "Fresh Hema", "name:zh": "盒马鲜生", "shop": "supermarket"}}, {"type": "node", "id": 9407196433, "lat": 23.1341008, "lon": 113.3218632, "tags": {"amenity": "cafe", "brand": "奈雪的茶", "brand:en": "Nayuki", "brand:wikidata": "Q107351710", "brand:wikipedia": "zh:奈雪的茶", "brand:zh": "奈雪的茶", "cuisine": "bubble_tea", "name": "奈雪的茶", "name:en": "Nayuki", "name:zh": "奈雪的茶", "takeaway": "yes"}}, {"type": "node", "id": 9407196438, "lat": 23.1345264, "lon": 113.3214704, "tags": {"amenity": "fast_food", "brand": "麦当劳", "brand:en": "McDonald's", "brand:wikidata": "Q38076", "brand:wikipedia": "zh:麦当劳", "brand:zh": "麦当劳", "brand:zh-Hans": "麦当劳", "cuisine": "burger", "name": "麦当劳", "name:en": "McDonald's", "name:zh": "麦当劳", "name:zh-Hans": "麦当劳", "takeaway": "yes"}}, {"type": "node", "id": 9407196442, "lat": 23.1339517, "lon": 113.3174015, "tags": {"amenity": "cafe", "brand": "CoCo都可", "brand:en": "CoCo Fresh Tea & Juice", "brand:wikidata": "Q65084369", "brand:wikipedia": "zh:CoCo都可", "brand:zh": "CoCo都可", "cuisine": "bubble_tea", "name": "CoCo都可", "name:en": "CoCo Fresh Tea & Juice", "name:zh": "CoCo都可", "takeaway": "yes"}}, {"type": "node", "id": 9446307899, "lat": 23.1364369, "lon": 113.3248162, "tags": {"brand": "全家", "brand:en": "FamilyMart", "brand:wikidata": "Q11247682", "brand:wikipedia": "zh:FamilyMart", "brand:zh": "全家", "name": "全家", "name:en": "FamilyMart", "name:zh": "全家", "shop": "convenience"}}, {"type": "node", "id": 9462450977, "lat": 23.1191187, "lon": 113.3940257, "tags": {"amenity": "restaurant", "brand": "海底捞火锅", "brand:en": "Haidilao Hot Pot", "brand:wikidata": "Q5638920", "brand:wikipedia": "zh:海底捞", "brand:zh": "海底捞火锅", "brand:zh-Hans": "海底捞火锅", "brand:zh-Hant": "海底撈火鍋", "cuisine": "chinese;hotpot", "name": "海底捞火锅", "name:en": "Haidilao Hot Pot", "name:zh": "海底捞火锅", "name:zh-Hans": "海底捞火锅", "name:zh-Hant": "海底撈火鍋"}}, {"type": "node", "id": 9462602412, "lat": 23.1310471, "lon": 113.4021049, "tags": {"addr:city": "广州市", "addr:district": "天河区", "addr:housenumber": "26号", "addr:province": "广东省", "addr:street": "大观南路", "building": "commercial", "name": "长盛商务大厦"}}, {"type": "node", "id": 9489781047, "lat": 23.1368433, "lon": 113.3154461, "tags": {"brand": "7-Eleven", "brand:wikidata": "Q259340", "brand:wikipedia": "en:7-Eleven", "name": "7-Eleven", "name:en": "7 Eleven", "opening_hours": "24/7", "shop": "convenience"}}, {"type": "node", "id": 9489781048, "lat": 23.1368262, "lon": 113.3150778, "tags": {"addr:city": "广州市", "addr:district": "天河区", "addr:province": "广东省", "addr:street": "天河路", "amenity": "cafe", "brand": "奈雪的茶", "brand:en": "Nayuki", "brand:wikidata": "Q107351710", "brand:wikipedia": "zh:奈雪的茶", "brand:zh": "奈雪的茶", "cuisine": "bubble_tea", "name": "奈雪的茶", "name:en": "Nayuki", "name:zh": "奈雪的茶", "outdoor_seating": "yes", "takeaway": "yes"}}, {"type": "node", "id": 9497167719, "lat": 23.1381381, "lon": 113.3346271, "tags": {"amenity": "fast_food", "branch": "天娱广场餐厅", "brand": "麦当劳", "brand:en": "McDonald's", "brand:wikidata": "Q38076", "brand:zh": "麦当劳", "brand:zh-Hans": "麦当劳", "cuisine": "burger", "level": "1", "name": "麦当劳", "name:en": "McDonald's", "name:zh": "麦当劳", "name:zh-Hans": "麦当劳", "opening_hours": "08:00-22:00", "takeaway": "yes"}}, {"type": "node", "id": 9519517199, "lat": 23.1331398, "lon": 113.3150286, "tags": {"air_conditioning": "yes", "amenity": "cafe", "brand": "蜜雪冰城", "brand:en": "Mixue Ice Cream & Tea", "brand:wikidata": "Q107406476", "brand:wikipedia": "zh:蜜雪冰城", "brand:zh": "蜜雪冰城", "brand:zh-Latn-pinyin": "Mìxuě Bīngchéng", "changing_table": "no", "cuisine": "ice_cream;bubble_tea", "delivery": "yes", "description": "中国连锁冰淇淋与茶饮品牌，提供高性价比的现制饮品", "description:en": "Chinese chain store offering affordable ice cream and bubble tea", "indoor_seating": "yes", "name": "蜜雪冰城", "name:en": "Mixue Ice Cream & Tea", "name:zh": "蜜雪冰城", "name:zh-Latn-pinyin": "Mìxuě Bīngchéng", "opening_hours": "Mo-Su 09:00-23:00", "outdoor_seating": "no", "payment:alipay": "yes", "payment:wechat": "yes", "ref": "922726", "smoking": "no", "takeaway": "yes"}}, {"type": "node", "id": 9523292358, "lat": 23.1432087, "lon": 113.3157015, "tags": {"amenity": "cafe", "brand": "星巴克", "brand:en": "Starbucks", "brand:wikidata": "Q37158", "brand:wikipedia": "zh:星巴克", "brand:zh": "星巴克", "cuisine": "coffee_shop", "name": "星巴克", "name:en": "Starbucks", "name:zh": "星巴克", "takeaway": "yes"}}, {"type": "node", "id": 9558247765, "lat": 23.1781369, "lon": 113.3154255, "tags": {"air_conditioning": "yes", "amenity": "cafe", "brand": "蜜雪冰城", "brand:en": "Mixue Ice Cream & Tea", "brand:wikidata": "Q107406476", "brand:wikipedia": "zh:蜜雪冰城", "brand:zh": "蜜雪冰城", "brand:zh-Latn-pinyin": "Mìxuě Bīngchéng", "changing_table": "no", "cuisine": "ice_cream;bubble_tea", "delivery": "yes", "description": "中国连锁冰淇淋与茶饮品牌，提供高性价比的现制饮品", "description:en": "Chinese chain store offering affordable ice cream and bubble tea", "indoor_seating": "yes", "name": "蜜雪冰城", "name:en": "Mixue Ice Cream & Tea", "name:zh": "蜜雪冰城", "name:zh-Latn-pinyin": "Mìxuě Bīngchéng", "opening_hours": "Mo-Su 09:00-23:00", "outdoor_seating": "no", "payment:alipay": "yes", "payment:wechat": "yes", "smoking": "no", "takeaway": "yes"}}, {"type": "node", "id": 9558247766, "lat": 23.1781616, "lon": 113.3155089, "tags": {"brand": "美宜佳", "brand:en": "Meiyijia", "brand:wikidata": "Q55719551", "brand:wikipedia": "zh:美宜佳", "brand:zh": "美宜佳", "name": "美宜佳", "name:en": "Meiyijia", "name:zh": "美宜佳", "shop": "convenience"}}, {"type": "node", "id": 9570537335, "lat": 23.1213196, "lon": 113.3105228, "tags": {"name": "喜市多", "shop": "convenience"}}, {"type": "node", "id": 9570537337, "lat": 23.1217919, "lon": 113.3117878, "tags": {"amenity": "cafe", "brand": "茶百道", "brand:en": "ChaPanda", "brand:wikidata": "Q108165952", "brand:zh": "茶百道", "cuisine": "bubble_tea", "name": "茶百道", "name:en": "ChaPanda", "name:zh": "茶百道", "takeaway": "yes"}}, {"type": "node", "id": 9570537338, "lat": 23.120876, "lon": 113.3119118, "tags": {"amenity": "fast_food", "brand": "吉野家", "brand:en": "Yoshinoya", "brand:ja": "吉野家", "brand:wikidata": "Q776272", "brand:wikipedia": "ja:吉野家", "brand:zh": "吉野家", "brand:zh-Hans": "吉野家", "brand:zh-Hant": "吉野家", "cuisine": "beef_bowl", "name": "吉野家", "name:en": "Yoshinoya", "name:ja": "吉野家", "name:zh": "吉野家", "name:zh-Hans": "吉野家", "name:zh-Hant": "吉野家", "takeaway": "yes"}}, {"type": "node", "id": 9570537342, "lat": 23.1226831, "lon": 113.3128138, "tags": {"brand": "美宜佳", "brand:en": "Meiyijia", "brand:wikidata": "Q55719551", "brand:wikipedia": "zh:美宜佳", "brand:zh": "美宜佳", "name": "美宜佳", "name:en": "Meiyijia", "name:zh": "美宜佳", "shop": "convenience"}}, {"type": "node", "id": 9634969122, "lat": 23.1214193, "lon": 113.3382017, "tags": {"amenity": "restaurant", "name": "一点点", "not:brand:wikidata": "Q106926258"}}, {"type": "node", "id": 9634969123, "lat": 23.1215294, "lon": 113.3369931, "tags": {"amenity": "restaurant", "name": "711"}}, {"type": "node", "id": 9731950712, "lat": 23.1369403, "lon": 113.3497249, "tags": {"amenity": "restaurant"}}, {"type": "node", "id": 9736154161, "lat": 23.1367651, "lon": 113.348895, "tags": {"building": "apartments", "name": "文景阁"}}, {"type": "node", "id": 9756924517, "lat": 23.1224664, "lon": 113.3163982, "tags": {"amenity": "fast_food", "brand": "麦当劳", "brand:en": "McDonald's", "brand:wikidata": "Q38076", "brand:zh": "麦当劳", "brand:zh-Hans": "麦当劳", "cuisine": "burger", "name": "麦当劳", "name:en": "McDonald's", "name:zh": "麦当劳", "name:zh-Hans": "麦当劳", "takeaway": "yes", "wheelchair": "yes"}}, {"type": "node", "id": 9756924518, "lat": 23.122395, "lon": 113.3164765, "tags": {"amenity": "cafe", "brand": "星巴克", "brand:en": "Starbucks", "brand:wikidata": "Q37158", "brand:zh": "星巴克", "cuisine": "coffee_shop", "name": "星巴克", "name:en": "Starbucks", "name:zh": "星巴克", "takeaway": "yes", "wheelchair": "yes"}}, {"type": "node", "id": 9760077796, "lat": 23.1193108, "lon": 113.3187894, "tags": {"amenity": "cafe", "cuisine": "coffee_shop", "name": "Coffeeology"}}, {"type": "node", "id": 9770003526, "lat": 23.1297895, "lon": 113.3721072, "tags": {"amenity": "marketplace", "name": "棠下农贸市场"}}, {"type": "node", "id": 9770003538, "lat": 23.1288309, "lon": 113.3745868, "tags": {"amenity": "fast_food", "brand": "麦当劳", "brand:en": "McDonald's", "brand:wikidata": "Q38076", "brand:zh": "麦当劳", "brand:zh-Hans": "麦当劳", "cuisine": "burger", "name": "麦当劳", "name:en": "McDonald's", "name:zh": "麦当劳", "name:zh-Hans": "麦当劳", "takeaway": "yes"}}, {"type": "node", "id": 9770060333, "lat": 23.1277202, "lon": 113.36819, "tags": {"amenity": "restaurant", "name": "毛家湾"}}, {"type": "node", "id": 9770060334, "lat": 23.1280774, "lon": 113.3681647, "tags": {"amenity": "restaurant", "name": "山东老家"}}, {"type": "node", "id": 9817402576, "lat": 23.1210742, "lon": 113.3429503, "tags": {"addr:city": "广州市", "addr:district": "天河区", "addr:housenumber": "767", "addr:place": "珠光·壹坊", "addr:province": "广东省", "addr:street": "花城大道", "addr:unit": "142", "amenity": "restaurant", "branch": "EASE PARK", "cuisine": "chinese", "name": "榕意·川味之美", "opening_hours": "Mo-Su 11:00-14:00,17:00-21:00", "phone": "+86 20 3736 2845"}}, {"type": "node", "id": 9846304420, "lat": 23.1350945, "lon": 113.3620413, "tags": {"amenity": "fast_food", "brand": "肯德基", "brand:en": "KFC", "brand:wikidata": "Q524757", "brand:zh": "肯德基", "cuisine": "chicken", "name": "肯德基", "name:en": "KFC", "name:zh": "肯德基", "opening_hours": "Mo-Su,PH 00:00-00:00", "takeaway": "yes"}}, {"type": "node", "id": 9860950484, "lat": 23.1608689, "lon": 113.3334077, "tags": {"amenity": "cafe", "attraction": "animal", "cuisine": "bubble_tea", "name": "Permanent", "note": "饲养有垂耳兔的奶茶店", "outdoor_seating": "no", "species:wikidata": "Q389915", "species:wikipedia": "en:Lop rabbit"}}, {"type": "node", "id": 9887626657, "lat": 23.1273456, "lon": 113.3649124, "tags": {"brand": "全家", "brand:en": "FamilyMart", "brand:wikidata": "Q11247682", "brand:zh": "全家", "name": "全家", "name:en": "FamilyMart", "name:zh": "全家", "shop": "convenience"}}, {"type": "node", "id": 9900006558, "lat": 23.1689503, "lon": 113.3840838, "tags": {"brand": "美宜佳", "brand:en": "Meiyijia", "brand:wikidata": "Q97300244", "brand:zh": "美宜佳", "name": "美宜佳", "name:en": "Meiyijia", "name:zh": "美宜佳", "shop": "convenience"}}, {"type": "node", "id": 9903281674, "lat": 23.1347922, "lon": 113.3172954, "tags": {"amenity": "restaurant", "brand": "味千拉面", "brand:en": "Ajisen Ramen", "brand:ja": "味千ラーメン", "brand:wikidata": "Q4699761", "brand:zh": "味千拉面", "cuisine": "ramen", "name": "味千拉面", "name:en": "Ajisen Ramen", "name:ja": "味千ラーメン", "name:zh": "味千拉面"}}, {"type": "node", "id": 9903281679, "lat": 23.1348288, "lon": 113.3178725, "tags": {"amenity": "cafe", "brand": "瑞幸咖啡", "brand:en": "Luckin Coffee", "brand:wikidata": "Q56811344", "brand:zh": "瑞幸咖啡", "cuisine": "coffee_shop", "name": "瑞幸咖啡", "name:en": "Luckin Coffee", "name:zh": "瑞幸咖啡", "takeaway": "yes"}}, {"type": "node", "id": 9982818221, "lat": 23.1353792, "lon": 113.3239219, "tags": {"amenity": "restaurant", "brand": "寿司郎", "brand:en": "Sushiro", "brand:ja": "スシロー", "brand:wikidata": "Q11257037", "brand:zh": "寿司郎", "cuisine": "sushi", "level": "-1", "name": "寿司郎", "name:en": "Sushiro", "name:ja": "スシロー", "name:zh": "寿司郎"}}, {"type": "node", "id": 9982818223, "lat": 23.1355226, "lon": 113.3239379, "tags": {"amenity": "cafe", "branch": "Reserve", "brand": "星巴克", "brand:en": "Starbucks", "brand:wikidata": "Q37158", "brand:zh": "星巴克", "cuisine": "coffee_shop", "level": "0,1", "name": "星巴克", "name:en": "Starbucks", "name:zh": "星巴克", "takeaway": "yes"}}, {"type": "node", "id": 10106527405, "lat": 23.1337935, "lon": 113.3588176, "tags": {"changing_table": "no", "shop": "convenience", "wheelchair": "yes"}}, {"type": "node", "id": 10302578080, "lat": 23.1279023, "lon": 113.3659499, "tags": {"amenity": "fast_food", "brand": "肯德基", "brand:en": "KFC", "brand:wikidata": "Q524757", "brand:zh": "肯德基", "cuisine": "chicken", "name": "肯德基", "name:en": "KFC", "name:zh": "肯德基", "takeaway": "yes"}}, {"type": "node", "id": 10308540047, "lat": 23.1729437, "lon": 113.3454477, "tags": {"amenity": "cafe", "branch": "长湴店", "brand": "蜜雪冰城", "brand:en": "Mixue Ice Cream & Tea", "brand:wikidata": "Q107406476", "brand:zh": "蜜雪冰城", "brand:zh-Latn-pinyin": "Mìxuě Bīngchéng", "cuisine": "ice_cream;bubble_tea", "name": "蜜雪冰城", "name:en": "Mixue Ice Cream & Tea", "name:zh": "蜜雪冰城", "name:zh-Latn-pinyin": "Mìxuě Bīngchéng", "operator": "广州市天河区长兴壮壮饮品店", "ref": "925804", "takeaway": "yes"}}, {"type": "node", "id": 10596419313, "lat": 23.1272484, "lon": 113.3658122, "tags": {"amenity": "cafe", "check_date": "2023-01-31"}}, {"type": "node", "id": 10617509848, "lat": 23.1264186, "lon": 113.3684062, "tags": {"check_date": "2023-02-01", "level": "0", "name": "喜市多", "shop": "convenience"}}, {"type": "node", "id": 10617509849, "lat": 23.1268256, "lon": 113.366836, "tags": {"check_date": "2023-02-01", "level": "0", "name": "喜市多", "shop": "convenience"}}, {"type": "node", "id": 10651123599, "lat": 23.1335672, "lon": 113.3611753, "tags": {"name": "华农酸奶", "shop": "convenience", "wheelchair": "yes"}}, {"type": "node", "id": 10750204147, "lat": 23.1166575, "lon": 113.3338754, "tags": {"amenity": "cafe", "name": "小西家作", "name:en": "C's Tea Garden", "name:zh": "小西家作"}}, {"type": "node", "id": 10750204148, "lat": 23.1165996, "lon": 113.3343488, "tags": {"amenity": "cafe", "brand": "星巴克", "brand:en": "Starbucks", "brand:wikidata": "Q37158", "brand:zh": "星巴克", "cuisine": "coffee_shop", "name": "星巴克", "name:en": "Starbucks", "name:zh": "星巴克", "takeaway": "yes"}}, {"type": "node", "id": 10750204150, "lat": 23.1183897, "lon": 113.334326, "tags": {"brand": "全家", "brand:en": "FamilyMart", "brand:wikidata": "Q11247682", "brand:zh": "全家", "name": "全家", "name:en": "FamilyMart", "name:zh": "全家", "shop": "convenience"}}, {"type": "node", "id": 10750204151, "lat": 23.1179857, "lon": 113.3345074, "tags": {"amenity": "restaurant", "cuisine": "mexican", "name": "Mi Casa"}}, {"type": "node", "id": 10750204152, "lat": 23.1178791, "lon": 113.3345852, "tags": {"amenity": "restaurant", "cuisine": "spanish;seafood", "name": "Mezomd", "name:en": "Mezomd", "name:zh": "曼索帝"}}, {"type": "node", "id": 10750204153, "lat": 23.1175765, "lon": 113.3346807, "tags": {"name": "Corner's Deli", "name:en": "Corner's Deli", "name:zh": "每一角落", "shop": "convenience"}}, {"type": "node", "id": 10750204154, "lat": 23.1176982, "lon": 113.3346584, "tags": {"amenity": "restaurant", "cuisine": "steak_house", "name": "Steak & Burger"}}, {"type": "node", "id": 10891501135, "lat": 23.1230783, "lon": 113.3229789, "tags": {"amenity": "cafe", "brand": "星巴克", "brand:en": "Starbucks", "brand:wikidata": "Q37158", "brand:zh": "星巴克", "cuisine": "coffee_shop", "name": "星巴克", "name:en": "Starbucks", "name:zh": "星巴克", "official_name": "Starbucks Coffee", "takeaway": "yes"}}, {"type": "node", "id": 10891501136, "lat": 23.1232266, "lon": 113.3232806, "tags": {"amenity": "fast_food", "brand": "达美乐比萨", "brand:en": "Domino's", "brand:wikidata": "Q839466", "brand:zh": "达美乐比萨", "cuisine": "pizza", "name": "达美乐比萨", "name:en": "Domino's", "name:zh": "达美乐比萨", "takeaway": "yes"}}, {"type": "node", "id": 10891501137, "lat": 23.1232297, "lon": 113.323185, "tags": {"brand": "7-Eleven", "brand:wikidata": "Q259340", "name": "7-Eleven", "shop": "convenience"}}, {"type": "node", "id": 10904904564, "lat": 23.1174596, "lon": 113.3311377, "tags": {"amenity": "marketplace"}}, {"type": "node", "id": 10904904565, "lat": 23.1170792, "lon": 113.3311805, "tags": {"amenity": "restaurant"}}, {"type": "node", "id": 10973737098, "lat": 23.1220603, "lon": 113.3348272, "tags": {"amenity": "restaurant"}}, {"type": "node", "id": 11003318464, "lat": 23.1508283, "lon": 113.3198719, "tags": {"amenity": "fast_food", "brand": "72街", "brand:en": "72 Street", "brand:wikidata": "Q108683743", "brand:zh": "72街", "cuisine": "chinese", "layer": "-1", "name": "72街", "name:en": "72 Street", "name:zh": "72街", "takeaway": "yes"}}, {"type": "node", "id": 11030930880, "lat": 23.1528533, "lon": 113.2998287, "tags": {"name": "西亚兴安", "shop": "supermarket"}}, {"type": "node", "id": 11032481928, "lat": 23.1249498, "lon": 113.3565195, "tags": {"amenity": "fast_food", "brand": "肯德基", "brand:en": "KFC", "brand:wikidata": "Q524757", "brand:zh": "肯德基", "cuisine": "chicken", "name": "肯德基", "name:en": "KFC", "name:zh": "肯德基", "opening_hours": "24/7", "takeaway": "yes", "toilets:wheelchair": "yes", "wheelchair": "yes"}}, {"type": "node", "id": 11032482818, "lat": 23.120532, "lon": 113.3517986, "tags": {"amenity": "restaurant", "name": "鲍马爷"}}, {"type": "node", "id": 11059924168, "lat": 23.1432009, "lon": 113.3584596, "tags": {"amenity": "cafe", "brand": "星巴克", "brand:en": "Starbucks", "brand:wikidata": "Q37158", "brand:zh": "星巴克", "cuisine": "coffee_shop", "name": "星巴克", "name:en": "Starbucks", "name:zh": "星巴克", "takeaway": "yes"}}, {"type": "node", "id": 11066183710, "lat": 23.1526602, "lon": 113.2998038, "tags": {"shop": "convenience"}}, {"type": "node", "id": 11122078617, "lat": 23.1275851, "lon": 113.3911155, "tags": {"amenity": "fast_food", "brand": "肯德基", "brand:en": "KFC", "brand:wikidata": "Q524757", "brand:zh": "肯德基", "cuisine": "chicken", "name": "肯德基", "name:en": "KFC", "name:zh": "肯德基", "takeaway": "yes"}}, {"type": "node", "id": 11122078618, "lat": 23.127499, "lon": 113.3909594, "tags": {"amenity": "cafe", "brand": "喜茶", "brand:en": "Heytea", "brand:wikidata": "Q60875376", "brand:zh": "喜茶", "cuisine": "bubble_tea", "name": "喜茶", "name:en": "Heytea", "name:zh": "喜茶", "takeaway": "yes"}}, {"type": "node", "id": 11253054368, "lat": 23.1190958, "lon": 113.3167879, "tags": {"brand": "7-Eleven", "brand:wikidata": "Q259340", "name": "7-Eleven", "shop": "convenience", "wheelchair": "limited"}}, {"type": "node", "id": 11278476970, "lat": 23.1366881, "lon": 113.3285119, "tags": {"amenity": "restaurant", "name:en": "Bingsheng Pinwei Restaurant (shibei hotel)"}}, {"type": "node", "id": 11278477169, "lat": 23.1218385, "lon": 113.3111087, "tags": {"amenity": "restaurant", "brand": "点都德", "brand:en": "Diandoude", "brand:wikidata": "Q97780269", "brand:yue": "點都德", "brand:zh": "点都德", "cuisine": "cantonese", "name": "点都德", "name:en": "Diandoude", "name:yue": "點都德", "name:zh": "点都德"}}, {"type": "node", "id": 11280610969, "lat": 23.1344297, "lon": 113.3216432, "tags": {"amenity": "restaurant", "name:en": "Tou Tou Koi dim sum"}}, {"type": "node", "id": 11280611069, "lat": 23.1369989, "lon": 113.3279779, "tags": {"amenity": "restaurant", "name:en": "Jiang by Chef Fei michelin"}}, {"type": "node", "id": 11373192338, "lat": 23.126727, "lon": 113.3386977, "tags": {"amenity": "fast_food", "brand": "麦当劳", "brand:en": "McDonald's", "brand:wikidata": "Q38076", "brand:zh": "麦当劳", "brand:zh-Hans": "麦当劳", "cuisine": "burger", "name": "麦当劳", "name:en": "McDonald's", "name:zh": "麦当劳", "name:zh-Hans": "麦当劳", "takeaway": "yes"}}, {"type": "node", "id": 11661745752, "lat": 23.1228055, "lon": 113.3194682, "tags": {"amenity": "fast_food", "brand": "汉堡王", "brand:en": "Burger King", "brand:wikidata": "Q177054", "brand:zh": "汉堡王", "cuisine": "burger", "name": "汉堡王", "name:en": "Burger King", "name:zh": "汉堡王", "takeaway": "yes"}}, {"type": "node", "id": 11687749667, "lat": 23.1662975, "lon": 113.3973728, "tags": {"amenity": "fast_food", "brand": "汉堡王", "brand:en": "Burger King", "brand:wikidata": "Q177054", "brand:zh": "汉堡王", "cuisine": "burger", "name": "汉堡王", "name:en": "Burger King", "name:zh": "汉堡王", "takeaway": "yes"}}, {"type": "node", "id": 11738079549, "lat": 23.1413071, "lon": 113.3556606, "tags": {"changing_table": "no", "name": "泽晖便利店", "shop": "convenience", "toilets": "no", "wheelchair": "yes"}}, {"type": "node", "id": 11873098269, "lat": 23.1326257, "lon": 113.316273, "tags": {"amenity": "restaurant", "name": "蟹参宝"}}, {"type": "node", "id": 11876962534, "lat": 23.1365398, "lon": 113.3529251, "tags": {"amenity": "fast_food", "brand": "麦当劳", "brand:en": "McDonald's", "brand:wikidata": "Q38076", "brand:zh": "麦当劳", "cuisine": "burger", "name": "麦当劳", "name:en": "McDonald's", "name:zh": "麦当劳", "takeaway": "yes"}}, {"type": "node", "id": 12020142764, "lat": 23.1702751, "lon": 113.4053946, "tags": {"addr:city": "广州市", "addr:district": "黄埔区", "addr:housenumber": "1961", "addr:postcode": "510520", "addr:province": "广东省", "addr:street": "华观路", "amenity": "restaurant", "capacity": "290", "cuisine": "chinese;cantonese", "diet:local": "yes", "level": "3", "name": "桃李酒家", "name:en": "TOHLEE Chinese Restaurant", "name:ja": "桃李酒家", "name:zh": "桃李酒家", "opening_hours": "Mo-Fr 11:30-14:30,17:30-22:00; Sa-Su 09:30-14:30,17:30-22:00", "reservation": "yes", "website": "https://nikkogz.com/zh-hans/dining/toh-lee-chinese-restaurant/"}}, {"type": "node", "id": 12020142765, "lat": 23.1702791, "lon": 113.405834, "tags": {"addr:city": "广州市", "addr:district": "黄埔区", "addr:housenumber": "1961", "addr:postcode": "510520", "addr:province": "广东省", "addr:street": "华观路", "amenity": "restaurant", "capacity": "96", "cuisine": "japanese;teppanyaki", "diet:meat": "yes", "diet:seafood": "yes", "name": "弁庆日本料理･铁板烧", "name:en": "BENKAY Japanese & Teppanyaki Restaurant", "name:ja": "弁慶日本料理･鉄板焼", "opening_hours": "Mo-Su 11:30-14:30,18:00-22:00", "website": "https://nikkogz.com/zh-hans/dining/benkay-japanese-restaurant/"}}, {"type": "node", "id": 12020142766, "lat": 23.170256, "lon": 113.4056152, "tags": {"access": "yes", "addr:city": "广州市", "addr:district": "黄埔区", "addr:housenumber": "1961", "addr:postcode": "510520", "addr:province": "广东省", "addr:street": "华观路", "air_conditioning": "yes", "amenity": "fast_food", "capacity": "186", "cuisine": "international", "drive_through": "no", "fast_food": "cafeteria", "level": "1", "name": "贝拉诺全天候餐厅", "name:en": "CAFÉ VERANO", "name:ja": "オールディダイニング「カフェ　ヴェラーノ」", "name:zh": "贝拉诺全天候餐厅", "opening_hours": "Tu-Fr 07:00-10:00,12:00-14:30,18:00-21:30; Sa 07:00-10:00,12:00-14:30,17:30-21:00; Su 07:00-10:00,12:00-14:30", "operator": "广州日航酒店", "outdoor_seating": "no", "website": "https://nikkogz.com/dining/cafe-verano/"}}, {"type": "node", "id": 12047307349, "lat": 23.1278773, "lon": 113.3910463, "tags": {"amenity": "cafe", "cuisine": "bubble_tea", "name": "丘大叔"}}, {"type": "node", "id": 12047307350, "lat": 23.1278079, "lon": 113.391098, "tags": {"amenity": "cafe", "brand": "茶百道", "brand:en": "ChaPanda", "brand:wikidata": "Q108165952", "brand:zh": "茶百道", "cuisine": "bubble_tea", "name": "茶百道", "name:en": "ChaPanda", "name:zh": "茶百道", "takeaway": "yes"}}, {"type": "node", "id": 12047307351, "lat": 23.1275416, "lon": 113.3910811, "tags": {"amenity": "restaurant", "brand": "萨莉亚", "brand:en": "Saizeriya", "brand:wikidata": "Q886564", "brand:zh": "萨莉亚", "cuisine": "italian", "name": "萨莉亚", "name:en": "Saizeriya", "name:zh": "萨莉亚"}}, {"type": "node", "id": 12047307352, "lat": 23.1274835, "lon": 113.3908438, "tags": {"amenity": "cafe", "brand": "星巴克", "brand:en": "Starbucks", "brand:wikidata": "Q37158", "brand:zh": "星巴克", "cuisine": "coffee_shop", "name": "星巴克", "name:en": "Starbucks", "name:zh": "星巴克", "takeaway": "yes"}}, {"type": "node", "id": 12060625227, "lat": 23.1687956, "lon": 113.3969526, "tags": {"amenity": "cafe", "brand": "星巴克", "brand:en": "Starbucks", "brand:wikidata": "Q37158", "brand:zh": "星巴克", "cuisine": "coffee_shop", "name": "星巴克", "name:en": "Starbucks", "name:zh": "星巴克", "takeaway": "yes"}}, {"type": "node", "id": 12060625244, "lat": 23.1687225, "lon": 113.3989416, "tags": {"amenity": "fast_food", "brand": "赛百味", "brand:en": "Subway", "brand:wikidata": "Q244457", "brand:zh": "赛百味", "cuisine": "sandwich", "name": "赛百味", "name:en": "Subway", "name:zh": "赛百味", "takeaway": "yes"}}, {"type": "node", "id": 12060625245, "lat": 23.1683613, "lon": 113.3988496, "tags": {"amenity": "cafe", "brand": "喜茶", "brand:en": "Heytea", "brand:wikidata": "Q60875376", "brand:zh": "喜茶", "cuisine": "bubble_tea", "name": "喜茶", "name:en": "Heytea", "name:zh": "喜茶", "takeaway": "yes"}}, {"type": "node", "id": 12060625246, "lat": 23.1691064, "lon": 113.3998122, "tags": {"amenity": "fast_food", "cuisine": "burger", "name": "塔斯汀", "takeaway": "yes"}}, {"type": "node", "id": 12073224012, "lat": 23.1141481, "lon": 113.4001744, "tags": {"amenity": "fast_food", "branch": "兰亭盛荟店", "brand": "肯德基", "brand:en": "KFC", "brand:wikidata": "Q524757", "brand:zh": "肯德基", "cuisine": "chicken", "drive_through": "no", "name": "肯德基", "name:en": "KFC", "name:zh": "肯德基", "opening_hours": "07:00-23:00", "phone": "+86 20 66807589", "takeaway": "yes"}}, {"type": "node", "id": 12078443866, "lat": 23.1443634, "lon": 113.4266994, "tags": {"amenity": "fast_food", "brand": "麦当劳", "brand:en": "McDonald's", "brand:wikidata": "Q38076", "brand:zh": "麦当劳", "cuisine": "burger", "name": "麦当劳", "name:en": "McDonald's", "name:zh": "麦当劳", "takeaway": "yes"}}, {"type": "node", "id": 12085636282, "lat": 23.128298, "lon": 113.3292099, "tags": {"brand": "罗森", "brand:en": "LAWSON", "brand:wikidata": "Q1557223", "brand:zh": "罗森", "name": "罗森", "name:en": "Lawson", "name:zh": "罗森", "operator": "罗森（中国）投资有限公司", "shop": "convenience"}}, {"type": "node", "id": 12089200424, "lat": 23.1480129, "lon": 113.3746908, "tags": {"amenity": "restaurant", "name": "渔民新村"}}, {"type": "node", "id": 12104132516, "lat": 23.17188, "lon": 113.3809721, "tags": {"amenity": "restaurant", "cuisine": "chinese", "name": "肥仔烧排骨山庄", "opening_hours": "Mo-Su 11:00-14:00,17:00-21:00", "takeaway": "yes", "wheelchair": "limited"}}, {"type": "node", "id": 12118902437, "lat": 23.1450442, "lon": 113.3198386, "tags": {"amenity": "fast_food", "brand": "麦当劳", "brand:en": "McDonald's", "brand:wikidata": "Q38076", "brand:zh": "麦当劳", "cuisine": "burger", "name": "麦当劳", "name:en": "McDonald's", "name:zh": "麦当劳", "takeaway": "yes"}}, {"type": "node", "id": 12118902438, "lat": 23.145382, "lon": 113.3198186, "tags": {"amenity": "fast_food", "brand": "肯德基", "brand:en": "KFC", "brand:wikidata": "Q524757", "brand:zh": "肯德基", "cuisine": "chicken", "name": "肯德基", "name:en": "KFC", "name:zh": "肯德基", "takeaway": "yes"}}, {"type": "node", "id": 12118902440, "lat": 23.1448798, "lon": 113.318942, "tags": {"amenity": "cafe", "brand": "喜茶", "brand:en": "Heytea", "brand:wikidata": "Q60875376", "brand:zh": "喜茶", "cuisine": "bubble_tea", "name": "喜茶", "name:en": "Heytea", "name:zh": "喜茶", "takeaway": "yes"}}, {"type": "node", "id": 12118902441, "lat": 23.1451847, "lon": 113.3190214, "tags": {"amenity": "cafe", "brand": "星巴克", "brand:en": "Starbucks", "brand:wikidata": "Q37158", "brand:zh": "星巴克", "cuisine": "coffee_shop", "name": "星巴克", "name:en": "Starbucks", "name:zh": "星巴克", "takeaway": "yes"}}, {"type": "node", "id": 12143762481, "lat": 23.136249, "lon": 113.3551122, "tags": {"amenity": "fast_food", "brand": "肯德基", "brand:en": "KFC", "brand:wikidata": "Q524757", "brand:zh": "肯德基", "cuisine": "chicken", "name": "肯德基", "name:en": "KFC", "name:zh": "肯德基", "takeaway": "yes"}}, {"type": "node", "id": 12157153541, "lat": 23.1646787, "lon": 113.3340998, "tags": {"name": "嘉逸优选", "shop": "supermarket"}}, {"type": "node", "id": 12157153542, "lat": 23.1644671, "lon": 113.3340919, "tags": {"name": "天猫小店嘉逸超市", "shop": "convenience"}}, {"type": "node", "id": 12161256469, "lat": 23.1340599, "lon": 113.3270234, "tags": {"amenity": "restaurant", "cuisine": "japanese", "name": "摩打食堂"}}, {"type": "node", "id": 12161274482, "lat": 23.1337001, "lon": 113.3273703, "tags": {"name": "番茄便利店", "shop": "convenience"}}, {"type": "node", "id": 12161816705, "lat": 23.1553285, "lon": 113.3462578, "tags": {"amenity": "restaurant", "name": "Chaoshan Beef Kuey Teow"}}, {"type": "node", "id": 12161816706, "lat": 23.155299, "lon": 113.3462602, "tags": {"amenity": "restaurant", "name": "Chongqing chicken hotpot"}}, {"type": "node", "id": 12168358258, "lat": 23.148217, "lon": 113.3501085, "tags": {"amenity": "restaurant"}}, {"type": "node", "id": 12200978974, "lat": 23.1279156, "lon": 113.3666539, "tags": {"amenity": "restaurant", "brand": "广州酒家", "brand:en": "Guangzhou Restaurant", "brand:wikidata": "Q11062214", "brand:yue": "廣州酒家", "brand:zh": "广州酒家", "cuisine": "cantonese", "name": "广州酒家", "name:en": "Guangzhou Restaurant", "name:yue": "廣州酒家", "name:zh": "广州酒家"}}, {"type": "node", "id": 12242178941, "lat": 23.1409001, "lon": 113.3234545, "tags": {"amenity": "cafe", "brand": "星巴克", "brand:en": "Starbucks", "brand:wikidata": "Q37158", "brand:zh": "星巴克", "cuisine": "coffee_shop", "name": "星巴克", "name:en": "Starbucks", "name:zh": "星巴克", "takeaway": "yes"}}, {"type": "node", "id": 12242178942, "lat": 23.1410308, "lon": 113.3235806, "tags": {"amenity": "restaurant", "name": "大同酒家"}}, {"type": "node", "id": 12242573933, "lat": 23.1134632, "lon": 113.3951795, "tags": {"amenity": "restaurant", "cuisine": "cantonese", "name": "金姨饭堂", "name:zh": "金姨饭堂"}}, {"type": "node", "id": 12254607601, "lat": 23.123088, "lon": 113.3261086, "tags": {"amenity": "restaurant", "cuisine": "korean", "name": "Four seasons hansik (grill meat)"}}, {"type": "node", "id": 12260479701, "lat": 23.1344195, "lon": 113.3260765, "tags": {"amenity": "restaurant", "cuisine": "korean", "name": "DAWAN roast (BBQ grill meat)"}}, {"type": "node", "id": 12281766574, "lat": 23.1633303, "lon": 113.3223885, "tags": {"amenity": "fast_food", "brand": "麦当劳", "brand:en": "McDonald's", "brand:wikidata": "Q38076", "brand:zh": "麦当劳", "cuisine": "burger", "name": "麦当劳", "name:en": "McDonald's", "name:zh": "麦当劳", "takeaway": "yes"}}, {"type": "node", "id": 12292910101, "lat": 23.1544268, "lon": 113.3286854, "tags": {"addr:street": "粤垦路", "amenity": "restaurant", "cuisine": "oriental", "name": "一喜同捞同煲(天河直营店)", "website:menu": "http://一喜同捞同煲（天河直营店） 美好的东西只想与你一起分享。美团外卖一喜同捞同煲（天河直营店） http://dpurl.cn/6vR9PXJz"}}, {"type": "node", "id": 12512060801, "lat": 23.1217036, "lon": 113.310549, "tags": {"addr:housenumber": "2号", "addr:street": "华强路", "amenity": "restaurant", "cuisine": "burger;coffee_shop;grill;international;pasta;pizza;russian", "internet_access": "wlan", "name": "利多西餐厅", "name:en": "LETO restaurant", "name:ru": "Ресторан ЛЕТО", "opening_hours": "Mo-Sa,Su 12:00-00:00", "phone": "+8618126847618"}}, {"type": "node", "id": 12619493648, "lat": 23.138334, "lon": 113.3344241, "tags": {"amenity": "restaurant", "branch": "岗顶天娱广场店", "brand": "萨莉亚", "brand:en": "Saizeriya", "brand:wikidata": "Q886564", "brand:zh": "萨莉亚", "check_date": "2025-02-26", "cuisine": "italian", "internet_access": "no", "name": "萨莉亚", "name:en": "Saizeriya", "name:zh": "萨莉亚", "payment:cash": "yes", "payment:credit_cards": "yes", "payment:debit_cards": "yes", "wheelchair": "yes"}}, {"type": "node", "id": 12748593617, "lat": 23.1081639, "lon": 113.4081538, "tags": {"amenity": "fast_food", "brand": "麦当劳", "brand:en": "McDonald's", "brand:wikidata": "Q38076", "brand:zh": "麦当劳", "cuisine": "burger", "name": "麦当劳", "name:en": "McDonald's", "name:zh": "麦当劳", "takeaway": "yes"}}, {"type": "node", "id": 12748593618, "lat": 23.1083024, "lon": 113.4078295, "tags": {"amenity": "cafe", "brand": "星巴克", "brand:en": "Starbucks", "brand:wikidata": "Q37158", "brand:zh": "星巴克", "cuisine": "coffee_shop", "name": "星巴克", "name:en": "Starbucks", "name:zh": "星巴克", "takeaway": "yes"}}, {"type": "node", "id": 12802603654, "lat": 23.1372342, "lon": 113.3277885, "tags": {"amenity": "restaurant", "cuisine": "cantonese", "name": "江", "name:en": "Jiang by Chef Fei", "name:zh": "江", "opening_hours": "Mo-Su 17:30-22:00; Mo-Fr 11:30-14:30; Sa-Su 10:00-15:00;", "phone": "+86 20 3808 8885", "reservation": "required", "stars": "2", "website": "https://www.mandarinoriental.com/en/guangzhou/tianhe/dine/jiang-by-chef-fei"}}, {"type": "node", "id": 12802603655, "lat": 23.1371634, "lon": 113.3278173, "tags": {"amenity": "fast_food", "cuisine": "steak_house;seafood", "drive_through": "no", "fast_food": "cafeteria", "name": "Ebony", "name:zh": "悦铂尼", "name:zh-Hant": "悅鉑尼", "opening_hours": "Mo-Su 06:30-10:00,18:00-22:00; Mo-Fr 12:00-14:30; Sa-Su 12:00-15:00", "phone": "+86 20 3808 8884", "website": "https://www.mandarinoriental.com/en/guangzhou/tianhe/dine/ebony"}}, {"type": "node", "id": 12802625350, "lat": 23.1370319, "lon": 113.327716, "tags": {"amenity": "cafe", "email": "mogzh-reservations@mohg.com", "internet_access": "wlan", "internet_access:fee": "no", "name": "The Mandarin Cake Shop", "name:zh": "文华饼店", "opening_hours": "Mo-Su 09:00-20:00", "phone": "+86 20 3808 8886", "takeaway": "yes", "website": "https://www.mandarinoriental.com/en/guangzhou/tianhe/dine/the-mandarin-cake-shop", "website:menu": "https://photos.mandarinoriental.com/is/content/MandarinOriental/MOGZH%20-%20Guangzhou/PDFs/guangzhou-cake-shop-afternoon-tea.pdf"}}, {"type": "node", "id": 12816230411, "lat": 23.1349652, "lon": 113.3218159, "tags": {"addr:city": "广州", "addr:district": "天河区", "addr:housenumber": "228", "addr:postcode": "510620", "addr:province": "广东省", "addr:street": "天河路", "amenity": "restaurant", "brand": "КУЛИЧКИ", "capacity": "100", "cuisine": "russian;european;хлеб", "internet_access": "wlan", "internet_access:ssid": "顾里奇客", "name": "顾里奇客俄罗斯西餐厅", "name:ru": "КУЛИЧКИ", "not:name": "Куличи;Куличики", "official_name": "广州顾里奇客餐饮有限公司", "opening_hours": "Mo-Su 11:30-22:00", "payment:alipay": "yes", "payment:cash": "yes", "phone": "18898886061", "start_date": "2025-05-01", "takeaway": "yes"}}, {"type": "node", "id": 12839278138, "lat": 23.1183757, "lon": 113.3145883, "tags": {"brand": "7-Eleven", "brand:wikidata": "Q259340", "name": "7-Eleven", "shop": "convenience"}}, {"type": "node", "id": 12988091994, "lat": 23.1086359, "lon": 113.4080805, "tags": {"amenity": "restaurant", "brand": "必胜客", "brand:en": "Pizza Hut", "brand:wikidata": "Q191615", "brand:zh": "必胜客", "cuisine": "pizza", "name": "必胜客", "name:en": "Pizza Hut", "name:zh": "必胜客"}}, {"type": "node", "id": 12988091995, "lat": 23.1090161, "lon": 113.4078987, "tags": {"amenity": "cafe", "brand": "喜茶", "brand:en": "Heytea", "brand:wikidata": "Q60875376", "brand:zh": "喜茶", "cuisine": "bubble_tea", "name": "喜茶", "name:en": "Heytea", "name:zh": "喜茶", "takeaway": "yes"}}, {"type": "node", "id": 12988091996, "lat": 23.1093522, "lon": 113.4078847, "tags": {"brand": "7-Eleven", "brand:wikidata": "Q259340", "name": "7-Eleven", "shop": "convenience"}}, {"type": "node", "id": 12988091997, "lat": 23.1075781, "lon": 113.4104327, "tags": {"amenity": "restaurant", "brand": "寿司郎", "brand:en": "Sushiro", "brand:ja": "スシロー", "brand:wikidata": "Q11257037", "brand:zh": "寿司郎", "cuisine": "sushi", "name": "寿司郎", "name:en": "Sushiro", "name:ja": "スシロー", "name:zh": "寿司郎"}}, {"type": "node", "id": 12988091999, "lat": 23.1088664, "lon": 113.4080891, "tags": {"amenity": "fast_food", "brand": "大家乐", "brand:en": "Café de Coral", "brand:wikidata": "Q16241484", "brand:zh": "大家乐", "cuisine": "cantonese;western", "name": "大家乐", "name:en": "Café de Coral", "name:zh": "大家乐", "takeaway": "yes"}}, {"type": "node", "id": 12988098063, "lat": 23.107383, "lon": 113.4105528, "tags": {"amenity": "fast_food", "brand": "IKEA", "brand:wikidata": "Q54078", "cuisine": "swedish", "name": "IKEA Bistro", "name:zh": "宜家小餐馆", "opening_hours": "Mo-Su 10:00-22:00", "takeaway": "yes"}}, {"type": "node", "id": 12988143802, "lat": 23.1086834, "lon": 113.4080833, "tags": {"amenity": "cafe", "brand": "瑞幸咖啡", "brand:en": "Luckin Coffee", "brand:wikidata": "Q56811344", "brand:zh": "瑞幸咖啡", "cuisine": "coffee_shop", "name": "瑞幸咖啡", "name:en": "Luckin Coffee", "name:zh": "瑞幸咖啡", "takeaway": "yes"}}, {"type": "node", "id": 12990007105, "lat": 23.1087924, "lon": 113.4080919, "tags": {"amenity": "restaurant", "brand": "争鲜", "brand:en": "Sushi Express", "brand:wikidata": "Q15920674", "brand:zh": "争鲜", "cuisine": "sushi", "name": "争鲜", "name:en": "Sushi Express", "name:zh": "争鲜"}}, {"type": "node", "id": 12990007110, "lat": 23.1081268, "lon": 113.4068664, "tags": {"brand": "美宜佳", "brand:en": "Meiyijia", "brand:wikidata": "Q55719551", "brand:zh": "美宜佳", "name": "美宜佳", "name:en": "Meiyijia", "name:zh": "美宜佳", "shop": "convenience"}}, {"type": "node", "id": 13025790901, "lat": 23.1369963, "lon": 113.3289704, "tags": {"addr:housenumber": "168", "addr:street": "天河东路", "amenity": "restaurant", "cuisine": "seafood", "name": "炳胜品味", "name:en": "Bingsheng Taste", "website": "http://www.bingsheng.com"}}, {"type": "node", "id": 13155102962, "lat": 23.1231944, "lon": 113.3229984, "tags": {"amenity": "restaurant", "brand": "萨莉亚", "brand:en": "Saizeriya", "brand:wikidata": "Q886564", "brand:zh": "萨莉亚", "cuisine": "italian", "level": "1", "name": "萨莉亚", "name:en": "Saizeriya", "name:zh": "萨莉亚"}}, {"type": "node", "id": 13155250318, "lat": 23.1231251, "lon": 113.3235959, "tags": {"amenity": "restaurant", "cuisine": "italian"}}, {"type": "node", "id": 13157397750, "lat": 23.1230571, "lon": 113.3262429, "tags": {"amenity": "restaurant", "cuisine": "mexican", "level": "2", "name": "Fridas Tacos & Bar"}}, {"type": "node", "id": 13242868193, "lat": 23.1202535, "lon": 113.3211198, "tags": {"amenity": "cafe", "brand": "% Arabica", "brand:wikidata": "Q107639197", "cuisine": "coffee_shop", "name": "% Arabica", "takeaway": "yes"}}, {"type": "node", "id": 13255201275, "lat": 23.1210326, "lon": 113.3190548, "tags": {"amenity": "cafe", "brand": "茉莉奶白", "brand:en": "MOLLYTEA", "cuisine": "bubble_tea", "name": "茉莉奶白", "name:en": "MOLLYTEA", "name:zh": "茉莉奶白", "operator": "深圳米乐餐饮管理有限公司", "phone": "+86 400-615-8258", "website": "https://www.mollytea.com/", "wikipedia": "en:81200951"}}, {"type": "node", "id": 13255201276, "lat": 23.1210607, "lon": 113.3193963, "tags": {"amenity": "fast_food", "brand": "麦当劳", "brand:en": "McDonald's", "brand:wikidata": "Q38076", "brand:zh": "麦当劳", "cuisine": "burger", "name": "麦当劳", "name:en": "McDonald's", "name:zh": "麦当劳", "takeaway": "yes"}}, {"type": "node", "id": 13255201277, "lat": 23.1213302, "lon": 113.3194943, "tags": {"amenity": "cafe", "brand": "瑞幸咖啡", "brand:en": "Luckin Coffee", "brand:wikidata": "Q56811344", "brand:zh": "瑞幸咖啡", "cuisine": "coffee_shop", "name": "瑞幸咖啡", "name:en": "Luckin Coffee", "name:zh": "瑞幸咖啡", "takeaway": "yes"}},